{
    "/ServiceProvider/Facility/index.html?id=1b3f5c05-c322-438c-b113-9b3100d23e1f": {"title": "Graham Crescent Park, Forfar", "url":"/ServiceProvider/Facility/index.html?id=1b3f5c05-c322-438c-b113-9b3100d23e1f","short_address": "Graham Crescent, Forfar,  Angus", "tags": ["Play"], "phone":null, "lat": "56.6421648874615", "lng": "-2.90101289749146"},
    "/ServiceProvider/Facility/index.html?id=98eecbff-d50c-4962-a3c9-9b0b00b09da7": {"title": "Glenisla Golf Club, Alyth", "url":"/ServiceProvider/Facility/index.html?id=98eecbff-d50c-4962-a3c9-9b0b00b09da7","short_address": "Pitrocknie, Alyth, PH11 8JJ Perth and Kinross", "tags":["Golf"], "phone": "01828 632445", "lat": "56.6248874171045", "lng":"-3.20903778076172"},
    "/ServiceProvider/Facility/index.html?id=07584fe1-bdf6-4a04-a1b5-9b0c0087da99": {"title": "Beaton Hall, Methlick", "url":"/ServiceProvider/Facility/index.html?id=07584fe1-bdf6-4a04-a1b5-9b0c0087da99","short_address": "Methlick, AB41 7DT Aberdeenshire", "tags": ["RacquetSports"], "phone": null, "lat": "57.427717", "lng": "-2.242513"},
    "/ServiceProvider/Facility/index.html?id=d48c6afb-521f-42c6-a1fa-9b1b00b90ac3": {"title": "Milne's High School, Fochabers", "url":"/ServiceProvider/Facility/index.html?id=d48c6afb-521f-42c6-a1fa-9b1b00b90ac3","short_address": "West Street, Fochabers, IV32 7DJ Moray", "tags": ["Fencing"],"phone": "01343 820611", "lat": "57.614368", "lng": "-3.100139"},
    "/ServiceProvider/Facility/index.html?id=0a7af48a-042f-4427-9def-9b0b009cd1bb": {"title": "Northfield Outdoor Sports Centre, Aberdeen", "url":"/ServiceProvider/Facility/index.html?id=0a7af48a-042f-4427-9def-9b0b009cd1bb","short_address": "Kettlehills Road, Northfield, Aberdeen, AB16 5XU AberdeenCity", "tags": ["Bowling", "Golf", "Racquet Sports"], "phone": "01224 685920","lat": "57.1632664930233", "lng": "-2.15345442295074"},
    "/ServiceProvider/Facility/index.html?id=99321277-ae7a-4559-ac57-9b1600a406eb": {"title": "Balmoral Castle and grounds, Aberdeenshire", "url":"/ServiceProvider/Facility/index.html?id=99321277-ae7a-4559-ac57-9b1600a406eb","short_address": "The Estates Office, Balmoral, Ballater, Aberdeenshire, AB355TB Aberdeenshire", "tags": ["Walking", "Equestrian", "Track And Field"],"phone": "01339 742534", "lat": "57.034453", "lng": "-3.218954"},
    "/ServiceProvider/Facility/index.html?id=c6c34a60-49c3-434b-83dd-9b1b00cc5378": {"title": "St Stephen's Church, Aberdeen", "url":"/ServiceProvider/Facility/index.html?id=c6c34a60-49c3-434b-83dd-9b1b00cc5378","short_address": "Powis Place, Aberdeen, AB25 3TS Aberdeen City", "tags":["Bowling", "Racquet Sports"], "phone": null, "lat": "57.1565988315825", "lng":"-2.10686981678009"},
    "/ServiceProvider/Facility/index.html?id=2fd69c29-c3fa-44fd-9b0c-9b2100f9af2d": {"title": "Glenmarkie Riding Centre, Blairgowrie", "url":"/ServiceProvider/Facility/index.html?id=2fd69c29-c3fa-44fd-9b0c-9b2100f9af2d","short_address": "Glenisla, Blairgowrie, PH11 8QB Perth and Kinross", "tags":["Equestrian"], "phone": "01575 582293", "lat": "56.764568", "lng":"-3.244811"},
    "/ServiceProvider/Facility/index.html?id=f2f7bd29-6b74-4c6e-92dd-9b1500f150c0": {"title": "Lumsden Community Hall, Huntly", "url":"/ServiceProvider/Facility/index.html?id=f2f7bd29-6b74-4c6e-92dd-9b1500f150c0","short_address": "Lumsden Community Hall, Lumsden, Huntly, AB54 4JRAberdeenshire", "tags": ["Bowling"], "phone": null, "lat": "57.279222", "lng":"-2.870928"},
    "/ServiceProvider/Facility/index.html?id=56890bac-5254-4487-99a1-9b2f01076dfe": {"title": "Cairnie Football Pitch, Arbroath", "url":"/ServiceProvider/Facility/index.html?id=56890bac-5254-4487-99a1-9b2f01076dfe","short_address": "Kirkton Road, Arbroath,  Angus", "tags": ["Football"],"phone": "01241 431060", "lat": "56.5684918326257", "lng":"-2.59519815444946"},
    "/ServiceProvider/Facility/index.html?id=023731d8-1c88-4e33-bd72-9b0200be8765": {"title": "Scotscraig Bowling Club, Tayport", "url":"/ServiceProvider/Facility/index.html?id=023731d8-1c88-4e33-bd72-9b0200be8765","short_address": "Dougall Street, Tayport, DD6 9JG Fife", "tags": ["Bowling"],"phone": "01382 553629", "lat": "56.448518", "lng": "-2.881879"},
    "/ServiceProvider/Facility/index.html?id=c8002701-a2f5-4517-a17a-9b3001137055": {"title": "Forfar Farmington Lassies Football Club, Forfar", "url":"/ServiceProvider/Facility/index.html?id=c8002701-a2f5-4517-a17a-9b3001137055","short_address": "Muir Road, Forfar,  Angus", "tags": ["Football"], "phone":"01241 828379", "lat": "56.650930413502", "lng": "-2.88760185241699"},
    "/ServiceProvider/Facility/index.html?id=e7b0c935-7a75-4d04-a051-9b3000d63364": {"title": "Steele Park, Forfar", "url":"/ServiceProvider/Facility/index.html?id=e7b0c935-7a75-4d04-a051-9b3000d63364","short_address": "Forfar,  Angus", "tags": ["Football", "Play"], "phone": null,"lat": "56.6386132667428", "lng": "-2.8873872756958"},
    "/ServiceProvider/Facility/index.html?id=1c13fa57-508e-4d19-a65f-9b1a00dae08c": {"title": "Strathdon Hunter Chase, Strathdon", "url":"/ServiceProvider/Facility/index.html?id=1c13fa57-508e-4d19-a65f-9b1a00dae08c","short_address": "Semeil Farm, Strathdon, AB36 8XJ Aberdeenshire", "tags":["Equestrian"], "phone": "01975 651382", "lat": "57.190651", "lng":"-3.022664"},
    "/ServiceProvider/Facility/index.html?id=5c5e950e-4c46-41d2-aedf-9ac600eb91c6": {"title": "Inchgarth Community Centre, Aberdeen", "url":"/ServiceProvider/Facility/index.html?id=5c5e950e-4c46-41d2-aedf-9ac600eb91c6","short_address": "Inchgarth Community Centre, Aboyne Place, Garthdee, Aberdeen,AB10 7DR Aberdeen City", "tags": ["Racquet Sports", "Dancing", "Bowling","Cycling", "Fencing", "Football", "Fitness", "Martial Arts", "Skateboarding","Hoop Sports"], "phone": "01224 325191", "lat": "57.1217049271185", "lng":"-2.13365435600281"},
    "/ServiceProvider/Facility/index.html?id=6a8cb524-15cc-42c6-a0ff-9b0e00c2d542": {"title": "Inchmarlo Golf Club, Banchory", "url":"/ServiceProvider/Facility/index.html?id=6a8cb524-15cc-42c6-a0ff-9b0e00c2d542","short_address": "Inchmarlo Golf Club, Glassel Road, Banchory, AB31 4BQAberdeenshire", "tags": ["Golf"], "phone": "01330 826427", "lat": "57.059528","lng": "-2.528331"},
    "/ServiceProvider/Facility/index.html?id=4f9c5704-0a56-4dfb-bea6-9b130104fbd2": {"title": "New Deer Public Hall, Turriff", "url":"/ServiceProvider/Facility/index.html?id=4f9c5704-0a56-4dfb-bea6-9b130104fbd2","short_address": "Church Crescent, New Deer, Turriff, AB53 6WD Aberdeenshire","tags": ["Dancing"], "phone": "01771 644812", "lat": "57.512322", "lng":"-2.192248"},
    "/ServiceProvider/Facility/index.html?id=ae6e5c0d-1dbd-491f-9491-9b1b0108c4c7": {"title": "Lairds Cricket Ground, Methlick", "url":"/ServiceProvider/Facility/index.html?id=ae6e5c0d-1dbd-491f-9491-9b1b0108c4c7","short_address": "Lairds Cricket Ground, Whinhill of Ardo, Methlick, AB41 7HRAberdeenshire", "tags": ["Bat And Ball"], "phone": "07802 191533", "lat":"57.440736", "lng": "-2.240933"},
    "/ServiceProvider/Facility/index.html?id=abad31c3-2d60-43b9-b2c0-9ae30107cf79": {"title": "Montrose Library, Montrose", "url":"/ServiceProvider/Facility/index.html?id=abad31c3-2d60-43b9-b2c0-9ae30107cf79","short_address": "214 High Street, Montrose, DD10 8PH Angus", "tags":["Fitness"], "phone": "01674 673256", "lat": "56.710479", "lng": "-2.468805"},
    "/ServiceProvider/Facility/index.html?id=f5a41c68-2ff1-435a-af09-9b0c00f58eb2": {"title": "Torphins Golf Club, Torphins", "url":"/ServiceProvider/Facility/index.html?id=f5a41c68-2ff1-435a-af09-9b0c00f58eb2","short_address": "Torphins Golf Club, Bog Road, Torphins, AB31 4JUAberdeenshire", "tags": ["Golf"], "phone": "013398 82115", "lat": "57.112418","lng": "-2.641114"},
    "/ServiceProvider/Facility/index.html?id=fcf5daa7-0b7a-4e6f-9647-9b3100d36236": {"title": "Grampian Gardens Park, Arbroath", "url":"/ServiceProvider/Facility/index.html?id=fcf5daa7-0b7a-4e6f-9647-9b3100d36236","short_address": "Grampian Gardens, Arbroath,  Angus", "tags": ["Play"],"phone": null, "lat": "56.5729838820391", "lng": "-2.5783109664917"},
    "/ServiceProvider/Facility/index.html?id=8295d25f-3af5-4da8-9e55-9b0a0170f9a8": {"title": "The Meadows Sports Centre, Ellon", "url":"/ServiceProvider/Facility/index.html?id=8295d25f-3af5-4da8-9e55-9b0a0170f9a8","short_address": "The Meadows Sports Centre, Meadows Way, Ellon, AB41 9QJAberdeenshire", "tags": ["Football", "Rugby", "Stick And Ball", "Track AndField", "Fitness", "Racquet Sports", "Martial Arts", "Hoop Sports", "Bat AndBall", "Volleyball", "Gymnastics", "Dancing"], "phone": "01358 725162", "lat":"57.364635", "lng": "-2.056952"},
    "/ServiceProvider/Facility/index.html?id=32fbf323-952c-4839-8e10-9b1900c6c2b0": {"title": "Buckie Leisure Centre, Buckie", "url":"/ServiceProvider/Facility/index.html?id=32fbf323-952c-4839-8e10-9b1900c6c2b0","short_address": "Buckie Leisure Centre, South Pringle Street, Buckie, AB56 1PXMoray", "tags": ["Swimming", "Fitness"], "phone": "01542 832841", "lat":"57.674336", "lng": "-2.968741"},
    "/ServiceProvider/Facility/index.html?id=54147491-fb1c-42d4-9980-9b2101075503": {"title": "Kirkmichael Riding, Blairgowrie", "url":"/ServiceProvider/Facility/index.html?id=54147491-fb1c-42d4-9980-9b2101075503","short_address": "Kirkmichael, Blairgowrie, PH10 7NX Perth and Kinross","tags": ["Equestrian"], "phone": "01250 881309", "lat": "56.722816", "lng":"-3.50616"},
    "/ServiceProvider/Facility/index.html?id=1161b574-ba59-4f45-8921-9b120112bda7": {"title": "Macdonald Highland Resort, Aviemore", "url":"/ServiceProvider/Facility/index.html?id=1161b574-ba59-4f45-8921-9b120112bda7","short_address": "Macdonald Highland Resort, Aviemore, PH22 1PN Highland","tags": ["Swimming", "Fitness", "Play", "Football", "Golf"], "phone": "0844 8799152", "lat": "57.1906924909776", "lng": "-3.83920669555664"},
    "/ServiceProvider/Facility/index.html?id=772659f3-44e0-49d9-859a-9aef00b01adf": {"title": "Douglas Community and Library Centre, Dundee", "url":"/ServiceProvider/Facility/index.html?id=772659f3-44e0-49d9-859a-9aef00b01adf","short_address": "Balmoral Avenue, Dundee, DD4 8SD Dundee City", "tags":["Bowling", "Fitness", "Walking"], "phone": "01382 436944", "lat": "56.479291","lng": "-2.904348"},
    "/ServiceProvider/Facility/index.html?id=d2c76e28-3f34-4467-8329-9b0b00cd1b83": {"title": "Garthdee Football Centre, Aberdeen", "url":"/ServiceProvider/Facility/index.html?id=d2c76e28-3f34-4467-8329-9b0b00cd1b83","short_address": "Garthdee Football Centre, Garthdee Road, Aberdeen, AB10 7BAAberdeen City", "tags": ["Football", "Rugby", "Stick And Ball"], "phone":"01224 810215", "lat": "57.1216466849055", "lng": "-2.12366580963135"},
    "/ServiceProvider/Facility/index.html?id=776c3410-08db-4cb4-b299-9b1400a26b7b": {"title": "Stonehaven Scout Hut, Stonehaven", "url":"/ServiceProvider/Facility/index.html?id=776c3410-08db-4cb4-b299-9b1400a26b7b","short_address": "Mill of Forest Road, Stonehaven, AB39 2GZ Aberdeenshire","tags": ["Martial Arts"], "phone": null, "lat": "56.9605606013013", "lng":"-2.2308361530304"},
    "/ServiceProvider/Facility/index.html?id=612aa68d-c270-41ae-94ba-9aef00f70f15": {"title": "Murrayfield Allotments, Dundee", "url":"/ServiceProvider/Facility/index.html?id=612aa68d-c270-41ae-94ba-9aef00f70f15","short_address": "Murrayfield Drive, Dundee, DD4 0BA Dundee City", "tags":["Gardening"], "phone": "01382 527630", "lat": "56.487283035249", "lng":"-2.9277491569519"},
    "/ServiceProvider/Facility/index.html?id=dacb5cec-5eb1-48e7-bae2-9ada00c6433b": {"title": "Crombie Country Park, Broughty Ferry", "url":"/ServiceProvider/Facility/index.html?id=dacb5cec-5eb1-48e7-bae2-9ada00c6433b","short_address": "Monikie, Broughty Ferry, DD5 3QL Angus", "tags": ["Walking","Orienteering", "Play"], "phone": "01241 860360", "lat": "56.55329766008","lng": "-2.77518510818481"},
    "/ServiceProvider/Facility/index.html?id=e3b61dca-becd-4796-a9a0-9ae400f3b2ee": {"title": "Brechin School of Taekwondo & Martial Arts, Brechin", "url":"/ServiceProvider/Facility/index.html?id=e3b61dca-becd-4796-a9a0-9ae400f3b2ee","short_address": "The Arena, 22 Market Street, Brechin, DD9 6BB Angus", "tags":["Martial Arts"], "phone": "07050 242311", "lat": "56.733417", "lng":"-2.660637"},
    "/ServiceProvider/Facility/index.html?id=b4c25520-748e-4bca-8307-9b2f00d31ab0": {"title": "Broomfield Park, Montrose", "url":"/ServiceProvider/Facility/index.html?id=b4c25520-748e-4bca-8307-9b2f00d31ab0","short_address": "Broomfield Road, Montrose,  Angus", "tags": ["Football","Rugby", "Cycling"], "phone": null, "lat": "56.7237128158043", "lng":"-2.4569034576416"},
    "/ServiceProvider/Facility/index.html?id=b7ddd5f8-4b61-4c16-bece-9b0e00b96185": {"title": "Insch Golf Club, Insch", "url":"/ServiceProvider/Facility/index.html?id=b7ddd5f8-4b61-4c16-bece-9b0e00b96185","short_address": "Insch Golf Club, Golf Terrace, Insch, AB52 6JYAberdeenshire", "tags": ["Golf"], "phone": "01464 820363", "lat":"57.3445414158802", "lng": "-2.62556076049805"},
    "/ServiceProvider/Facility/index.html?id=77ba3a49-6adf-4178-9a32-9b0b00bc6622": {"title": "Alford Public Hall, Alford", "url":"/ServiceProvider/Facility/index.html?id=77ba3a49-6adf-4178-9a32-9b0b00bc6622","short_address": "Kingsford Road, Alford, AB33 8HH Aberdeenshire", "tags":["Dancing", "Bowling", "Martial Arts"], "phone": "01975 562932", "lat":"57.230634", "lng": "-2.704104"},
    "/ServiceProvider/Facility/index.html?id=85d8c8f7-4a8b-47bf-9462-9b17014a2253": {"title": "Gordon Terrace Allotments, Ellon", "url":"/ServiceProvider/Facility/index.html?id=85d8c8f7-4a8b-47bf-9462-9b17014a2253","short_address": "Gordon Terrace, Ellon,  Aberdeenshire", "tags":["Gardening"], "phone": null, "lat": "57.3671670434246", "lng":"-2.07635700702667"},
    "/ServiceProvider/Facility/index.html?id=d74fa983-17cd-410c-8f3a-9b1400b53306": {"title": "Stewart\u2019s Hall, Huntly", "url":"/ServiceProvider/Facility/index.html?id=d74fa983-17cd-410c-8f3a-9b1400b53306","short_address": "15-17 Gordon Street, Huntly, AB54 8AJ Aberdeenshire", "tags":["Racquet Sports"], "phone": "01466 792779", "lat": "57.447133", "lng":"-2.787071"},
    "/ServiceProvider/Facility/index.html?id=365be9d0-7335-43a7-ad10-9b0c00a17b1f": {"title": "Stonehaven Tennis Club, Stonehaven", "url":"/ServiceProvider/Facility/index.html?id=365be9d0-7335-43a7-ad10-9b0c00a17b1f","short_address": "Stonehaven Tennis Club, Recreation Grounds, Beach Road,Stonehaven, AB39 2RD Aberdeenshire", "tags": ["Racquet Sports"], "phone":"01569 765300", "lat": "56.9686554787222", "lng": "-2.20743656158447"},
    "/ServiceProvider/Facility/index.html?id=3793965d-c2e2-43cb-97a8-9b190116561b": {"title": "Kinloss Rugby Club, Near Forres", "url":"/ServiceProvider/Facility/index.html?id=3793965d-c2e2-43cb-97a8-9b190116561b","short_address": "Kinloss Rugby Club, Kinloss Park, Kinloss, Near Forres, IV363UH Moray", "tags": ["Rugby"], "phone": "01309 691681", "lat":"57.6399686903387", "lng": "-3.55964541435242"},
    "/ServiceProvider/Facility/index.html?id=16cc2353-7ca9-4067-9904-9ce000fba44d": {"title": "Mosstodloch Speymouth Village Hall, Fochabers", "url":"/ServiceProvider/Facility/index.html?id=16cc2353-7ca9-4067-9904-9ce000fba44d","short_address": "Mosstodloch Village Hall, Stynie Road, Mosstodloch,Fochabers, IV32 7JJ Moray", "tags": ["Dancing"], "phone": "01343 820970\u200e", "lat": "57.6246789973695", "lng": "-3.12078237533569"},
    "/ServiceProvider/Facility/index.html?id=f631f991-bba9-433c-b5e7-9b0c01071d55": {"title": "Fraserburgh West End Bowling Club, Fraserburgh", "url":"/ServiceProvider/Facility/index.html?id=f631f991-bba9-433c-b5e7-9b0c01071d55","short_address": "Union Grove, Fraserburgh, AB43 9LD Aberdeenshire", "tags":["Bowling"], "phone": null, "lat": "57.690861", "lng": "-2.01838"},
    "/ServiceProvider/Woodland/index.html?id=b1f35834-64e3-4bbc-a218-9ae300c73df9": {"title": "Monaughty - Torrieston Car Park", "url":"/ServiceProvider/Woodland/index.html?id=b1f35834-64e3-4bbc-a218-9ae300c73df9","short_address": " Moray", "tags": ["Walking"], "phone": "01466 794161", "lat":"57.6121008121017", "lng": "-3.39859073212586"},
    "/ServiceProvider/Facility/index.html?id=d734424e-240f-4f66-ac32-9b1500bdbaa6": {"title": "Robert Gordon University, Aberdeen", "url":"/ServiceProvider/Facility/index.html?id=d734424e-240f-4f66-ac32-9b1500bdbaa6","short_address": "Garthdee Road, Garthdee Campus, Aberdeen, AB10 7GE AberdeenCity", "tags": ["Hoop Sports", "Racquet Sports", "Swimming", "Jogging","Fitness", "Climbing"], "phone": "01224 262000", "lat": "57.1194042900602","lng": "-2.13748455047607"},
    "/ServiceProvider/Facility/index.html?id=33eee17f-cccf-44dd-a471-9b0a015c133e": {"title": "David Lloyd, Aberdeen, Aberdeen", "url":"/ServiceProvider/Facility/index.html?id=33eee17f-cccf-44dd-a471-9b0a015c133e","short_address": "Garthdee Road, Aberdeen, AB10 7AY Aberdeen City", "tags":["Fitness", "Swimming", "Racquet Sports", "Play", "Hoop Sports", "Football","Dancing", "Stick And Ball", "Rugby"], "phone": "01224 321 335", "lat":"57.120148", "lng": "-2.124748"},
    "/ServiceProvider/Facility/index.html?id=afda0e6a-6983-4638-976c-9ad900fdb9b1": {"title": "Forfar Bowling Club, Forfar", "url":"/ServiceProvider/Facility/index.html?id=afda0e6a-6983-4638-976c-9ad900fdb9b1","short_address": "Melbourne Place, Lour Road, Forfar, DD8 2AS Angus", "tags":["Bowling"], "phone": "01307 463700", "lat": "56.6417991213719", "lng":"-2.88367509841919"},
    "/ServiceProvider/Facility/index.html?id=0de315f2-1e57-43ba-be3e-9ad5010b6d52": {"title": "Brechin Leisure Centre, Brechin", "url":"/ServiceProvider/Facility/index.html?id=0de315f2-1e57-43ba-be3e-9ad5010b6d52","short_address": "River Street, Brechin, DD9 7HQ Angus", "tags": ["MartialArts", "Stick And Ball", "Racquet Sports", "Bowling", "Football", "HoopSports", "Gymnastics", "Fitness"], "phone": "01356 623088", "lat": "56.726626","lng": "-2.65367"},
    "/ServiceProvider/Facility/index.html?id=5d3d1731-37ff-4fd3-9c2b-9b3000a24b63": {"title": "Glebe Park, Brechin", "url":"/ServiceProvider/Facility/index.html?id=5d3d1731-37ff-4fd3-9c2b-9b3000a24b63","short_address": "Trinity Road, Brechin, DD9 6BJ Angus", "tags": ["Football"],"phone": "01356 622856", "lat": "56.7355196098261", "lng":"-2.65727519989014"},
    "/ServiceProvider/Facility/index.html?id=4a3e7521-ac8d-43e7-bde7-9ad600e27270": {"title": "Broomfield Golf Driving Range, Montrose", "url":"/ServiceProvider/Facility/index.html?id=4a3e7521-ac8d-43e7-bde7-9ad600e27270","short_address": "Broomfield, Montrose, DD10 8SY Angus", "tags": ["Golf"],"phone": "07782 245556", "lat": "56.723611", "lng": "-2.462236"},
    "/ServiceProvider/Facility/index.html?id=bbc46dd0-950a-4a18-9db8-9b1b00c5e8e2": {"title": "William Reid Cycle Shop, Aberdeen", "url":"/ServiceProvider/Facility/index.html?id=bbc46dd0-950a-4a18-9db8-9b1b00c5e8e2","short_address": "William Reid Cycle Shop, 44 Broom Hill Road, Aberdeen, AB106HT Aberdeen City", "tags": ["Cycling"], "phone": "01224 586 974", "lat":"57.13522", "lng": "-2.117711"},
    "/ServiceProvider/Facility/index.html?id=a2df0d65-affa-487f-8451-9b0b00f86a8d": {"title": "Strathmore Golf Club, Alyth", "url":"/ServiceProvider/Facility/index.html?id=a2df0d65-affa-487f-8451-9b0b00f86a8d","short_address": "Leroch, Alyth, PH11 8NZ Perth and Kinross", "tags": ["Golf"],"phone": "01828 633322", "lat": "56.5982712518595", "lng": "-3.2136082649231"},
    "/ServiceProvider/Facility/index.html?id=6767cfe2-d568-46e6-8696-9aee00c929a9": {"title": "The Star Ballroom, Dundee", "url":"/ServiceProvider/Facility/index.html?id=6767cfe2-d568-46e6-8696-9aee00c929a9","short_address": "The Star Ballroom, 10 Burnside Street, Dundee, DD2 3AS DundeeCity", "tags": ["Dancing"], "phone": "01382 611388", "lat": "56.471835", "lng":"-3.009117"},
    "/ServiceProvider/Facility/index.html?id=8bae137c-3e93-4dc4-a55e-9b1a00f8cefb": {"title": "Westburn Skate Park, Aberdeen", "url":"/ServiceProvider/Facility/index.html?id=8bae137c-3e93-4dc4-a55e-9b1a00f8cefb","short_address": "Westburn Drive, Aberdeen, AB25 3BY Aberdeen City", "tags":["Skateboarding", "Cycling"], "phone": null, "lat": "57.1536602571054", "lng":"-2.12405204772949"},
    "/ServiceProvider/Facility/index.html?id=5c1306e5-d82b-4f72-b016-9b1300c403a2": {"title": "Gartly Community Hall, Huntly", "url":"/ServiceProvider/Facility/index.html?id=5c1306e5-d82b-4f72-b016-9b1300c403a2","short_address": "Gartly Community Hall, Park Lane, Gartly, Huntly, AB54 4QFAberdeenshire", "tags": ["Fitness"], "phone": null, "lat": "57.3775014940028","lng": "-2.79627799987793"},
    "/ServiceProvider/Facility/index.html?id=222b8d25-00c9-4eff-a4a3-9b0e00b05e0f": {"title": "Balnagask Golf Course, Aberdeen", "url":"/ServiceProvider/Facility/index.html?id=222b8d25-00c9-4eff-a4a3-9b0e00b05e0f","short_address": "St Fitticks Road, Torry, Aberdeen, AB11 3QT Aberdeen City","tags": ["Golf"], "phone": "01224 876407", "lat": "57.1385913045126", "lng":"-2.06706047058105"},
    "/ServiceProvider/Facility/index.html?id=757fcef6-c416-493b-ba44-9ad500f5a8b5": {"title": "Arbroath Artisan Golf Club, By Arbroath", "url":"/ServiceProvider/Facility/index.html?id=757fcef6-c416-493b-ba44-9ad500f5a8b5","short_address": "Elliot Clubhouse, By Arbroath, DD11 2PE Angus", "tags":["Golf"], "phone": "01241 872069", "lat": "56.5433383249016", "lng":"-2.62300729751587"},
    "/ServiceProvider/Facility/index.html?id=7296aa65-13eb-41b2-86e6-9b0b01056606": {"title": "Inverbervie Sports Centre, Inverbervie", "url":"/ServiceProvider/Facility/index.html?id=7296aa65-13eb-41b2-86e6-9b0b01056606","short_address": "Inverbervie Sports Centre, Kirkburn, Inverbervie, DD10 0RSAberdeenshire", "tags": ["Racquet Sports", "Football", "Volleyball", "HoopSports", "Golf", "Play", "Fitness"], "phone": "01561 361182", "lat":"56.843097", "lng": "-2.276619"},
    "/ServiceProvider/Facility/index.html?id=2590766a-f87e-4460-a19d-9b1a010cd729": {"title": "Lecht Ski Centre, Strathdon", "url":"/ServiceProvider/Facility/index.html?id=2590766a-f87e-4460-a19d-9b1a010cd729","short_address": "Lecht Ski Centre, Strathdon, AB36 8YP Aberdeenshire", "tags":["Snow Sports", "Cycling"], "phone": "019756 51440", "lat": "57.167627", "lng":"-3.23066"},
    "/ServiceProvider/Woodland/index.html?id=a3445014-5be7-497b-9109-9ae300c6fc41": {"title": "Dunnyduff Wood - Reidhaven Square, Keith", "url":"/ServiceProvider/Woodland/index.html?id=a3445014-5be7-497b-9109-9ae300c6fc41","short_address": " Aberdeenshire", "tags": ["Walking"], "phone": "01466794161", "lat": "57.5390455251081", "lng": "-2.944706063861"},
    "/ServiceProvider/Facility/index.html?id=355d982f-d08c-4642-8d2f-9b1f00fd3391": {"title": "Longforgan Bowling Club, Longforgan", "url":"/ServiceProvider/Facility/index.html?id=355d982f-d08c-4642-8d2f-9b1f00fd3391","short_address": "Main Street, Longforgan, DD2 Perth and Kinross", "tags":["Bowling"], "phone": "01382 360456", "lat": "56.457208", "lng": "-3.122915"},
    "/ServiceProvider/Facility/index.html?id=3ec2f100-0246-444f-ab9d-9ac600facd01": {"title": "Beach Leisure Centre, Aberdeen", "url":"/ServiceProvider/Facility/index.html?id=3ec2f100-0246-444f-ab9d-9ac600facd01","short_address": "Beach Promenade, Aberdeen, AB24 5NR Aberdeen City", "tags":["Climbing", "Swimming", "Fitness", "Racquet Sports", "Football", "HoopSports", "Volleyball", "Gymnastics", "Dancing", "Martial Arts"], "phone":"01224 655401", "lat": "57.1559704035966", "lng": "-2.08004236221313"},
    "/ServiceProvider/Facility/index.html?id=e6081ee8-6c31-485d-9cff-9b0c00be6703": {"title": "Cairncry Community Centre, Aberdeen", "url":"/ServiceProvider/Facility/index.html?id=e6081ee8-6c31-485d-9cff-9b0c00be6703","short_address": "Cairncry Community Centre, Foresterhill Road, Aberdeen, AB165HL Aberdeen City", "tags": ["Dancing", "Martial Arts", "Bowling", "RacquetSports", "Fitness"], "phone": "01224 698920", "lat": "57.1593684425088", "lng":"-2.14321374893188"},
    "/ServiceProvider/Facility/index.html?id=912710f2-c442-4d6e-9aab-9b1800b015ab": {"title": "Marykirk Village Hall, Lawrencekirk", "url":"/ServiceProvider/Facility/index.html?id=912710f2-c442-4d6e-9aab-9b1800b015ab","short_address": "Marykirk Village Hall, Main Street, Marykirk, Lawrencekirk,AB30 1UT Aberdeenshire", "tags": ["Martial Arts"], "phone": null, "lat":"56.781213", "lng": "-2.515609"},
    "/ServiceProvider/Facility/index.html?id=c764fba5-0cf3-4bf2-8fe3-9b0b00f191ae": {"title": "Ellon Swimming Pool and Community Centre, Ellon", "url":"/ServiceProvider/Facility/index.html?id=c764fba5-0cf3-4bf2-8fe3-9b0b00f191ae","short_address": "Ellon Swimming Pool and Community Centre, Schoolhill Road,Ellon, AB41 9JS Aberdeenshire", "tags": ["Dancing", "Fitness", "Swimming","Water Sports", "Racquet Sports", "Hoop Sports"], "phone": "01358 727910","lat": "57.3672509339769", "lng": "-2.0728325843811"},
    "/ServiceProvider/Facility/index.html?id=b97dc3c7-8eee-4cda-8e87-9b2f00d4f349": {"title": "Bloomfield Road Park, Arbroath", "url":"/ServiceProvider/Facility/index.html?id=b97dc3c7-8eee-4cda-8e87-9b2f00d4f349","short_address": "Bloomfield Road, Arbroath,  Angus", "tags": ["Play"],"phone": "08452 777 778", "lat": "56.5612916196617", "lng":"-2.61466026306152"},
    "/ServiceProvider/Facility/index.html?id=af5cfe23-59f0-49f1-846a-9ad9009f31b8": {"title": "Lochside Leisure Centre, Forfar", "url":"/ServiceProvider/Facility/index.html?id=af5cfe23-59f0-49f1-846a-9ad9009f31b8","short_address": "Lochside Country Park, Forfar, DD8 1BT Angus", "tags":["Fitness", "Martial Arts", "Racquet Sports", "Track And Field", "Gymnastics","Climbing", "Football", "Golf", "Hoop Sports", "Bowling", "Archery","Dancing"], "phone": "01307 464201", "lat": "56.645526", "lng": "-2.895"},
    "/ServiceProvider/Facility/index.html?id=0833e7ba-1bed-46be-bbc8-9b19010b3226": {"title": "Transition Extreme Sports Limited, Aberdeen", "url":"/ServiceProvider/Facility/index.html?id=0833e7ba-1bed-46be-bbc8-9b19010b3226","short_address": "Links Road, Queens Links, Aberdeen, AB24 5NN Aberdeen City","tags": ["Hoop Sports", "Climbing", "Cycling", "Skateboarding", "MartialArts"], "phone": "01224 626279", "lat": "57.154606", "lng": "-2.083721"},
    "/ServiceProvider/Facility/index.html?id=f6b38d76-0bb1-466b-9267-9ad5010aa4bb": {"title": "Arbroath Tennis Club, Arbroath", "url":"/ServiceProvider/Facility/index.html?id=f6b38d76-0bb1-466b-9267-9ad5010aa4bb","short_address": "Arbirlot Road, Arbroath, DD11 2EN Angus", "tags": ["RacquetSports"], "phone": "01241 870746", "lat": "56.5592105146771", "lng":"-2.60253667831421"},
    "/ServiceProvider/Facility/index.html?id=ffa25652-e2e8-4302-a16c-9b1301116930": {"title": "Hazlehead Community Centre, Aberdeen", "url":"/ServiceProvider/Facility/index.html?id=ffa25652-e2e8-4302-a16c-9b1301116930","short_address": "Hazlehead Community Centre, Harlaw Pavilion, Groats Road,Aberdeen, AB15 8BL Aberdeen City", "tags": ["Football", "Fitness", "RacquetSports", "Walking"], "phone": "01224 326430", "lat": "57.1414786860907", "lng":"-2.17419862747192"},
    "/ServiceProvider/Facility/index.html?id=13751c75-219c-440b-84d6-9b1600ad2d26": {"title": "Burnett Park, Banchory", "url":"/ServiceProvider/Facility/index.html?id=13751c75-219c-440b-84d6-9b1600ad2d26","short_address": "Banchory,  Aberdeenshire", "tags": ["Racquet Sports", "BatAnd Ball", "Ice Sports", "Walking"], "phone": null, "lat": "57.0559027960441","lng": "-2.52050399780273"},
    "/ServiceProvider/Facility/index.html?id=860fb106-78ad-4c4b-b156-9b0700f62a84": {"title": "Stonehaven Leisure Centre, Stonehaven", "url":"/ServiceProvider/Facility/index.html?id=860fb106-78ad-4c4b-b156-9b0700f62a84","short_address": "Queen Elizabeth Park, Stonehaven, AB39 2RD Aberdeenshire","tags": ["Swimming", "Fitness", "Racquet Sports", "Gymnastics", "Track AndField", "Martial Arts", "Walking"], "phone": "01569 763162", "lat":"56.9702812607796", "lng": "-2.20541954040527"},
    "/ServiceProvider/Facility/index.html?id=6fa39882-1963-40dd-b9e0-9b1200b82363": {"title": "Alford Community Centre, Alford", "url":"/ServiceProvider/Facility/index.html?id=6fa39882-1963-40dd-b9e0-9b1200b82363","short_address": "Murray Terrace, Alford, AB33 8PY Aberdeenshire", "tags":["Fitness", "Martial Arts", "Dancing"], "phone": "019755 63651", "lat":"57.231777", "lng": "-2.707091"},
    "/ServiceProvider/Facility/index.html?id=b330066e-eb0e-4d4b-9adc-9b0a00c0bf57": {"title": "Results Gym, Aberdeen", "url":"/ServiceProvider/Facility/index.html?id=b330066e-eb0e-4d4b-9adc-9b0a00c0bf57","short_address": "Unit 7, 109 Urquhart Road, Aberdeen, AB24 5NH Aberdeen City","tags": ["Fitness"], "phone": "01224 633123", "lat": "57.154516", "lng":"-2.084432"},
    "/ServiceProvider/Facility/index.html?id=2b3cd92f-41c3-4ce6-9af3-9b1700f57b45": {"title": "Hazlehead Park, Aberdeen", "url":"/ServiceProvider/Facility/index.html?id=2b3cd92f-41c3-4ce6-9af3-9b1700f57b45","short_address": "Hazlehead Avenue, Aberdeen, AB15 8BJ Aberdeen City", "tags":["Walking", "Golf", "Play", "Jogging", "Football", "Equestrian"], "phone":"01224 523201", "lat": "57.1395227425377", "lng": "-2.17896223068237"},
    "/ServiceProvider/Facility/index.html?id=fa12ccac-3801-4f16-ba8e-9b1b00a4d0cb": {"title": "Northern Hotel, Aberdeen", "url":"/ServiceProvider/Facility/index.html?id=fa12ccac-3801-4f16-ba8e-9b1b00a4d0cb","short_address": "Northern Hotel, 1 Great Northern Road, Aberdeen, AB24 3PSAberdeen City", "tags": ["Dancing"], "phone": "01224 483342", "lat":"57.1621145745986", "lng": "-2.11641311645508"},
    "/ServiceProvider/Woodland/index.html?id=204281b5-c954-4798-919b-9ae300c6fc05": {"title": "Countesswells - Countesswells Car Park", "url":"/ServiceProvider/Woodland/index.html?id=204281b5-c954-4798-919b-9ae300c6fc05","short_address": " Aberdeenshire", "tags": ["Equestrian", "Walking"], "phone":"01466 794161", "lat": "57.1318377951961", "lng": "-2.21395423304117"},
    "/ServiceProvider/Facility/index.html?id=f1549cd1-f1e8-4b48-b687-9aeb00a4f26f": {"title": "West End Lawn Tennis Club, Dundee", "url":"/ServiceProvider/Facility/index.html?id=f1549cd1-f1e8-4b48-b687-9aeb00a4f26f","short_address": "West End Lawn Tennis Club, 101 Shaftesbury Road, Dundee, DD21JY Dundee City", "tags": ["Racquet Sports"], "phone": "07949608159", "lat":"56.4575792349301", "lng": "-3.00658196210861"},
    "/ServiceProvider/Facility/index.html?id=9a3ab5ab-dbc0-4fac-a5fa-9b2f00ac27cf": {"title": "Eithie Street Play Park, Arbroath", "url":"/ServiceProvider/Facility/index.html?id=9a3ab5ab-dbc0-4fac-a5fa-9b2f00ac27cf","short_address": "Eithie Street, Auchmithie, Arbroath,  Angus", "tags":["Play"], "phone": "08452 777 778", "lat": "56.5881110709179", "lng":"-2.52642631530762"},
    "/ServiceProvider/Facility/index.html?id=f4e610c5-edd3-4b15-b2b3-9b1b00a25ca7": {"title": "Cullen Town Hall, Cullen", "url":"/ServiceProvider/Facility/index.html?id=f4e610c5-edd3-4b15-b2b3-9b1b00a25ca7","short_address": "Cullen Town Hall, 11 The Square, Cullen, AB56 4RR Moray","tags": ["Dancing"], "phone": "01542 841478", "lat": "57.690894", "lng":"-2.819741"},
    "/ServiceProvider/Facility/index.html?id=4a57dfe3-4e57-4062-82ce-9b1400f9f7de": {"title": "Kemnay Church Centre, Inverurie", "url":"/ServiceProvider/Facility/index.html?id=4a57dfe3-4e57-4062-82ce-9b1400f9f7de","short_address": "Kemnay Church Centre, Church Lane, Kemnay, Inverurie, AB515QP Aberdeenshire", "tags": ["Racquet Sports"], "phone": "01467 643883", "lat":"57.234252", "lng": "-2.442862"},
    "/ServiceProvider/Facility/index.html?id=e880e0aa-7088-4de6-9b41-9b1a00ded98d": {"title": "Logie Park, Cullen", "url":"/ServiceProvider/Facility/index.html?id=e880e0aa-7088-4de6-9b41-9b1a00ded98d","short_address": "Logie Park, Cullen, AB56 4TZ Moray", "tags": ["Football","Play"], "phone": "01542 832841", "lat": "57.693357", "lng": "-2.813842"},
    "/ServiceProvider/Woodland/index.html?id=e5da6da1-4d05-48c5-9d77-9ae300c6fbf2": {"title": "Clune Wood - Clune Wood Entrance", "url":"/ServiceProvider/Woodland/index.html?id=e5da6da1-4d05-48c5-9d77-9ae300c6fbf2","short_address": " Aberdeenshire", "tags": ["Walking"], "phone": "01466794161", "lat": "57.0525017477758", "lng": "-2.33879431893037"},
    "/ServiceProvider/Facility/index.html?id=3c6fd0ee-3566-4ce4-af45-9b1800f70cc5": {"title": "Elgin & District Indoor Bowls Club, Elgin", "url":"/ServiceProvider/Facility/index.html?id=3c6fd0ee-3566-4ce4-af45-9b1800f70cc5","short_address": "Linkwood Industrial Estate, Moycroft, Elgin, IV30 1XS Moray","tags": ["Bowling"], "phone": "01343 550133", "lat": "57.648111", "lng":"-3.287494"},
    "/ServiceProvider/Facility/index.html?id=7530b7cd-3c77-4bea-87cb-9ae300ea3d4a": {"title": "Menmuir Village Hall, Brechin", "url":"/ServiceProvider/Facility/index.html?id=7530b7cd-3c77-4bea-87cb-9ae300ea3d4a","short_address": "Menmuir, Brechin,  Angus", "tags": ["Fitness"], "phone":null, "lat": "56.806791", "lng": "-2.653542"},
    "/ServiceProvider/Facility/index.html?id=16744b84-6221-40f5-bb74-9ae100fff775": {"title": "Brechin High School, Angus", "url":"/ServiceProvider/Facility/index.html?id=16744b84-6221-40f5-bb74-9ae100fff775","short_address": "Duke Street, Brechin, Angus, DD9 6LB Angus", "tags":["Swimming", "Rugby", "Track And Field", "Jogging"], "phone": "01356 622135","lat": "56.736758", "lng": "-2.670994"},
    "/ServiceProvider/Facility/index.html?id=046facbf-4f94-4dd9-a0e0-9ae00107f505": {"title": "Strathmore Rugby Club, Forfar", "url":"/ServiceProvider/Facility/index.html?id=046facbf-4f94-4dd9-a0e0-9ae00107f505","short_address": "Inchmacoble, Forfar, DD8 1RL Angus", "tags": ["Rugby"],"phone": "01307 462911", "lat": "56.641985", "lng": "-2.906412"},
    "/ServiceProvider/Facility/index.html?id=a5515ce0-15de-4488-97a1-9b0300a4c6aa": {"title": "Balkeerie & Eassie Community Hall, Balkeerie", "url":"/ServiceProvider/Facility/index.html?id=a5515ce0-15de-4488-97a1-9b0300a4c6aa","short_address": "Balkeerie,  Angus", "tags": ["Fitness", "Dancing","Jogging"], "phone": "01307 840 415", "lat": "56.593692", "lng": "-3.083009"},
    "/ServiceProvider/Facility/index.html?id=773709f6-f7d5-4670-812b-9b1a00b37d39": {"title": "Coulardbank Park, Lossiemouth", "url":"/ServiceProvider/Facility/index.html?id=773709f6-f7d5-4670-812b-9b1a00b37d39","short_address": "Coulardbank Park, Coulardbank Road, Lossiemouth, IV31 6JWMoray", "tags": ["Football"], "phone": "01343 815299", "lat":"57.7137189474426", "lng": "-3.2973575592041"},
    "/ServiceProvider/Facility/index.html?id=a8c998d5-62c8-4e40-ac2c-9b1200f5fcf5": {"title": "Boat of Garten Community Centre, Boat of Garten", "url":"/ServiceProvider/Facility/index.html?id=a8c998d5-62c8-4e40-ac2c-9b1200f5fcf5","short_address": "Boat of Garten, PH24 Highland", "tags": ["Bowling","Fitness", "Racquet Sports"], "phone": "01479 831213", "lat": "57.249148","lng": "-3.757151"},
    "/ServiceProvider/Facility/index.html?id=f133e128-74ef-4242-8dd0-9b1a00c3d6e2": {"title": "Grant Park, Forres", "url":"/ServiceProvider/Facility/index.html?id=f133e128-74ef-4242-8dd0-9b1a00c3d6e2","short_address": "Grant Park, Forres, IV36 3BN Moray", "tags": ["Football","Jogging", "Play"], "phone": "01309 672984", "lat": "57.6123713468688", "lng":"-3.60476016998291"},
    "/ServiceProvider/Facility/index.html?id=6ad061f2-9267-48a2-a865-9b1901070f1a": {"title": "Keith Cricket Club, Keith", "url":"/ServiceProvider/Facility/index.html?id=6ad061f2-9267-48a2-a865-9b1901070f1a","short_address": "Keith Cricket Club, Woodlands, Duff Street, Keith, AB55 5EAMoray", "tags": ["Bat And Ball"], "phone": "01542 887105", "lat": "57.544514","lng": "-2.963957"},
    "/ServiceProvider/Facility/index.html?id=26733ace-90fb-4e79-93c0-9aee00d627e6": {"title": "McTaggart Sports Centre, Dundee", "url":"/ServiceProvider/Facility/index.html?id=26733ace-90fb-4e79-93c0-9aee00d627e6","short_address": "Old Glamis Road, Dundee, DD3 0NR Dundee City", "tags":["Fitness", "Football", "Stick And Ball", "Hoop Sports", "Volleyball", "RacquetSports", "Bowling"], "phone": "01382 880022", "lat": "56.492358", "lng":"-2.972874"},
    "/ServiceProvider/Facility/index.html?id=94243318-9628-4015-85d7-9aef00c1c991": {"title": "Dundee West Parish Church, Dundee", "url":"/ServiceProvider/Facility/index.html?id=94243318-9628-4015-85d7-9aef00c1c991","short_address": "132 Perth Road, Dundee, DD1 4JW Dundee City", "tags":["Racquet Sports"], "phone": "01382 322231", "lat": "56.456212745562", "lng":"-2.98337817192078"},
    "/ServiceProvider/Facility/index.html?id=eed24244-f865-495c-9d12-9b1500ccf9e9": {"title": "Loirston Community Centre, Aberdeen", "url":"/ServiceProvider/Facility/index.html?id=eed24244-f865-495c-9d12-9b1500ccf9e9","short_address": "Loirston Community Centre, Loirston Avenue, Cove Bay,Aberdeen, AB12 3HE Aberdeen City", "tags": ["Fitness", "Gardening"], "phone":"01224 878482", "lat": "57.1038319192217", "lng": "-2.08636164665222"},
    "/ServiceProvider/Facility/index.html?id=e346363f-10fd-4318-87d1-9b0c00c906c5": {"title": "Aberdeen Squash Racquets Club, Aberdeen", "url":"/ServiceProvider/Facility/index.html?id=e346363f-10fd-4318-87d1-9b0c00c906c5","short_address": "Aberdeen Squash Racquets Club, Cranford Road, Mannofield,Aberdeen, AB10 7ND Aberdeen City", "tags": ["Racquet Sports", "Fitness"],"phone": "01224 316122", "lat": "57.1306818690314", "lng":"-2.13719487190247"},
    "/ServiceProvider/Facility/index.html?id=df7a9774-e3f6-4b45-b45b-9b1900ea8188": {"title": "Morriston Park Track, Elgin", "url":"/ServiceProvider/Facility/index.html?id=df7a9774-e3f6-4b45-b45b-9b1900ea8188","short_address": "Morriston Road, Elgin,  Moray", "tags": ["Track And Field"],"phone": null, "lat": "57.6526803089735", "lng": "-3.33091735839844"},
    "/ServiceProvider/Facility/index.html?id=28de9586-94fd-440d-9f41-9aeb00e51007": {"title": "Dundee Indoor Bowling Club, Dundee", "url":"/ServiceProvider/Facility/index.html?id=28de9586-94fd-440d-9f41-9aeb00e51007","short_address": "Dundee Indoor Bowling Club, 15 Miln Street, Dundee, DD1 5BZDundee City", "tags": ["Bowling"], "phone": "01382 225232", "lat": "56.462139","lng": "-2.98351"},
    "/ServiceProvider/Facility/index.html?id=8052fe2d-b43c-4928-a1ac-9b1800f6e291": {"title": "Daviot Public Hall, Daviot", "url":"/ServiceProvider/Facility/index.html?id=8052fe2d-b43c-4928-a1ac-9b1800f6e291","short_address": "Daviot Public Hall, Wellbrae, Daviot, AB51 0HZAberdeenshire", "tags": ["Racquet Sports", "Bowling", "Martial Arts"], "phone":"01467 671388", "lat": "57.343214", "lng": "-2.417606"},
    "/ServiceProvider/Facility/index.html?id=4991c297-57cd-4a67-944b-9ad5010cfd7b": {"title": "Arbroath Newgate Bowling Club, Arbroath", "url":"/ServiceProvider/Facility/index.html?id=4991c297-57cd-4a67-944b-9ad5010cfd7b","short_address": "West Newgate, Arbroath, DD11 1BL Angus", "tags": ["Bowling"],"phone": "01241 874267", "lat": "56.558335470445", "lng": "-2.5787615776062"},
    "/ServiceProvider/Facility/index.html?id=3a27935d-bea0-4c76-98c3-9ad9010b7433": {"title": "Hillside Bowling Club, Montrose", "url":"/ServiceProvider/Facility/index.html?id=3a27935d-bea0-4c76-98c3-9ad9010b7433","short_address": "Main Road, Hillside, Montrose, DD10 9HT Angus", "tags":["Bowling"], "phone": null, "lat": "56.7428043054518", "lng":"-2.48520612716675"},
    "/ServiceProvider/Facility/index.html?id=c612e90a-4b4a-48ad-89af-9b0a010c0d29": {"title": "Airyhall Community Centre, Aberdeen", "url":"/ServiceProvider/Facility/index.html?id=c612e90a-4b4a-48ad-89af-9b0a010c0d29","short_address": "Countesswells Road, Airyhall, Aberdeen, AB15 8AD AberdeenCity", "tags": ["Jogging", "Fitness", "Martial Arts"], "phone": "01224 208082","lat": "57.132211", "lng": "-2.150709"},
    "/ServiceProvider/Facility/index.html?id=64e100e8-d8a9-4e64-88d1-9b1200d1d80d": {"title": "Westhill Academy, Aberdeen", "url":"/ServiceProvider/Facility/index.html?id=64e100e8-d8a9-4e64-88d1-9b1200d1d80d","short_address": "Hays Way, Westhill, Aberdeen, AB32 6XZ Aberdeenshire","tags": ["Hoop Sports"], "phone": "01224 740111", "lat": "57.156032", "lng":"-2.28234"},
    "/ServiceProvider/Facility/index.html?id=93e52f1b-4440-4717-8a10-9b1900b44ead": {"title": "Alpine Bikes, Aberdeen", "url":"/ServiceProvider/Facility/index.html?id=93e52f1b-4440-4717-8a10-9b1900b44ead","short_address": "Alpine Bikes, 64-70 Holburn Street, Aberdeen, AB10 6BXAberdeen City", "tags": ["Cycling"], "phone": "01224 211 455", "lat":"57.1417260823005", "lng": "-2.1129584312439"},
    "/ServiceProvider/Facility/index.html?id=5797c621-9d24-4d68-ba44-9b1a00ad5422": {"title": "The Office, Aberdeen", "url":"/ServiceProvider/Facility/index.html?id=5797c621-9d24-4d68-ba44-9b1a00ad5422","short_address": "7 Crown Street, Aberdeen, AB11 6HA Aberdeen City", "tags":["Dancing"], "phone": "01224 571475", "lat": "57.1446976181193", "lng":"-2.10330247879028"},
    "/ServiceProvider/Facility/index.html?id=7edda02e-7601-42d5-92cf-9ce900b76aee": {"title": "Results Fitness Studio", "url":"/ServiceProvider/Facility/index.html?id=7edda02e-7601-42d5-92cf-9ce900b76aee","short_address": "St James Road, Forfar, DD8 2AQ Angus", "tags": ["Fitness","Martial Arts"], "phone": "01307 469787", "lat": "56.643698706633", "lng":"-2.88485527038574"},
    "/ServiceProvider/Facility/index.html?id=d97c39ff-a24f-4366-bf2f-9ae100e0492f": {"title": "Birkhill football pitch, Birkhill", "url":"/ServiceProvider/Facility/index.html?id=d97c39ff-a24f-4366-bf2f-9ae100e0492f","short_address": "Couper Angus Road, Birkhill, DD2 5QE Angus", "tags":["Football"], "phone": "01241 853246", "lat": "56.494284116353", "lng":"-3.05901646614075"},
    "/ServiceProvider/Facility/index.html?id=eac70552-9efa-4db2-ba12-9b1800e2ab87": {"title": "Milltimber Community Hall, Aberdeen", "url":"/ServiceProvider/Facility/index.html?id=eac70552-9efa-4db2-ba12-9b1800e2ab87","short_address": "Milltimber Community Hall, The Meadows, Milltimber, Aberdeen,AB13 0JT Aberdeen City", "tags": ["Gardening", "Bowling", "Fitness","Dancing"], "phone": "01224 732172", "lat": "57.1098332712175", "lng":"-2.23713397979736"},
    "/ServiceProvider/Facility/index.html?id=c34da9bd-77df-4a9e-9feb-9b1b00ea187c": {"title": "Tomintoul Riding Centre, Tomintoul", "url":"/ServiceProvider/Facility/index.html?id=c34da9bd-77df-4a9e-9feb-9b1b00ea187c","short_address": "St. Bridget Farm, Ballindalloch, Tomintoul, AB37 9HS Moray","tags": ["Equestrian"], "phone": "01807 580210", "lat": "57.247792", "lng":"-3.385872"},
    "/ServiceProvider/Facility/index.html?id=e985ff8a-b2b8-4fcb-966c-9ada00c260ce": {"title": "Forfar Loch Country Park, Forfar", "url":"/ServiceProvider/Facility/index.html?id=e985ff8a-b2b8-4fcb-966c-9ada00c260ce","short_address": "Craig O'Loch Road, Forfar, DD8 1BT Angus", "tags":["Walking", "Orienteering"], "phone": "08452 777 778", "lat":"56.6451026864259", "lng": "-2.89740800857544"},
    "/ServiceProvider/Facility/index.html?id=d3cf7f2d-7b87-4ae9-aa10-9aeb00c0f7d9": {"title": "Balgay Bowling Club, Dundee", "url":"/ServiceProvider/Facility/index.html?id=d3cf7f2d-7b87-4ae9-aa10-9aeb00c0f7d9","short_address": "Balgay Bowling Club, Melville Terrace, West Park Road,Dundee, DD2 1NT Dundee City", "tags": ["Bowling"], "phone": "01382 668545","lat": "56.4575644142679", "lng": "-3.01295757293701"},
    "/ServiceProvider/Facility/index.html?id=87541bac-f327-4c66-a7b0-9b1400afe28d": {"title": "Howe Trinity Parish Church Hall, Alford", "url":"/ServiceProvider/Facility/index.html?id=87541bac-f327-4c66-a7b0-9b1400afe28d","short_address": "Howe Trinity Parish Church Hall, 110 Main Street, Alford,AB33 8AD Aberdeen City", "tags": ["Dancing"], "phone": "01975 563339", "lat":"57.231236", "lng": "-2.696181"},
    "/ServiceProvider/Facility/index.html?id=045b7cab-3ab7-4f32-8628-9b1b00a462d7": {"title": "Dufftown Memorial Hall, Dufftown", "url":"/ServiceProvider/Facility/index.html?id=045b7cab-3ab7-4f32-8628-9b1b00a462d7","short_address": "Dufftown Memorial Hall, Albert Pl, Dufftown, AB55 4AY Moray","tags": ["Bowling", "Dancing"], "phone": "01340 871457", "lat": "57.446073","lng": "-3.126807"},
    "/ServiceProvider/Facility/index.html?id=21589465-d7b0-4a16-9542-9b8100e8e5e8": {"title": "Aviemore Indoor Climbing Wall, Aviemore", "url":"/ServiceProvider/Facility/index.html?id=21589465-d7b0-4a16-9542-9b8100e8e5e8","short_address": "Unit 8, Dalfaber Industrial Estate, Aviemore, PH22 1STHighland", "tags": ["Climbing"], "phone": "01479 812466", "lat": "57.201952","lng": "-3.819005"},
    "/ServiceProvider/Facility/index.html?id=bb223fb1-22d6-4250-a4e2-9ae100f047f4": {"title": "Angus College, Arbroath", "url":"/ServiceProvider/Facility/index.html?id=bb223fb1-22d6-4250-a4e2-9ae100f047f4","short_address": "Keptie Road, Arbroath, DD11 3EA Angus", "tags": ["Golf","Dancing", "Fitness", "Climbing"], "phone": "01241 432600", "lat": "56.559861","lng": "-2.594986"},
    "/ServiceProvider/Facility/index.html?id=30bf179b-dd8a-44f0-8f2d-9aef010b2b4b": {"title": "Sport Karate East, Dundee", "url":"/ServiceProvider/Facility/index.html?id=30bf179b-dd8a-44f0-8f2d-9aef010b2b4b","short_address": "Sport Karate East, 61 King Street, Dundee, DD1 2JY DundeeCity", "tags": ["Martial Arts"], "phone": "07935 935390", "lat": "56.465564","lng": "-2.963798"},
    "/ServiceProvider/Facility/index.html?id=0653382a-ba62-42bf-b69b-9aef009e4515": {"title": "Kirkton Community Centre, Dundee", "url":"/ServiceProvider/Facility/index.html?id=0653382a-ba62-42bf-b69b-9aef009e4515","short_address": "Kirkton Community Centre, Derwent Avenue, Dundee, DD3 0BWDundee City", "tags": ["Bowling", "Gymnastics", "Fitness", "Martial Arts","Walking", "Dancing", "Football", "Racquet Sports"], "phone": "01382 436453","lat": "56.4898863800029", "lng": "-2.98684895038605"},
    "/ServiceProvider/Facility/index.html?id=0d3f8137-43e9-4894-8aa6-9b3000fb2d5b": {"title": "Carnoustie House Park, Carnoustie", "url":"/ServiceProvider/Facility/index.html?id=0d3f8137-43e9-4894-8aa6-9b3000fb2d5b","short_address": "Queen Street, Carnoustie,  Angus", "tags": ["Football","Walking", "Play"], "phone": null, "lat": "56.5041260906324", "lng":"-2.7160906791687"},
    "/ServiceProvider/Facility/index.html?id=a670c2a9-4c78-4c66-abb7-9b1901052636": {"title": "Fochabers Cricket Club, Fochabers", "url":"/ServiceProvider/Facility/index.html?id=a670c2a9-4c78-4c66-abb7-9b1901052636","short_address": "Fochabers Cricket Club, 12 East Street, Fochabers, IV32 7DSMoray", "tags": ["Bat And Ball"], "phone": "01343 821438", "lat":"57.6155894357664", "lng": "-3.10342311859131"},
    "/ServiceProvider/Facility/index.html?id=11e2d3b0-2856-479f-8b3b-9b1500fd6ec2": {"title": "Mackie Academy, Stonehaven", "url":"/ServiceProvider/Facility/index.html?id=11e2d3b0-2856-479f-8b3b-9b1500fd6ec2","short_address": "Mackie Academy, Slug Road, Stonehaven, AB39 3DFAberdeenshire", "tags": ["Track And Field", "Racquet Sports"], "phone": "01569762071", "lat": "56.971473", "lng": "-2.222466"},
    "/ServiceProvider/Facility/index.html?id=d3457ec2-c3c6-44b7-959b-9aef00cf649a": {"title": "Dawson Park, Dundee", "url":"/ServiceProvider/Facility/index.html?id=d3457ec2-c3c6-44b7-959b-9aef00cf649a","short_address": "Fairfield Road, off Strathearn Road, Broughty Ferry, Dundee,DD5 1PL Dundee City", "tags": ["Walking", "Play", "Jogging", "Track And Field","Football", "Rugby", "Stick And Ball", "Racquet Sports", "Bat And Ball","Bowling", "Climbing"], "phone": null, "lat": "56.4745450995285", "lng":"-2.90199995040894"},
    "/ServiceProvider/Facility/index.html?id=aa5c5a50-4ab9-4d97-88e9-9ad9010f6a4f": {"title": "Hope Paton Bowling Club, Montrose", "url":"/ServiceProvider/Facility/index.html?id=aa5c5a50-4ab9-4d97-88e9-9ad9010f6a4f","short_address": "Whytes Place, Montrose, DD10 8RW Angus", "tags": ["Bowling"],"phone": "01674 674511", "lat": "56.7138925780949", "lng": "-2.4620532989502"},
    "/ServiceProvider/Facility/index.html?id=f8109e6d-d110-44a3-acbc-9b14010e1e7b": {"title": "Sheddocksley Baptist Church, Aberdeen", "url":"/ServiceProvider/Facility/index.html?id=f8109e6d-d110-44a3-acbc-9b14010e1e7b","short_address": "Eday Walk, Sheddocksley, Aberdeen, AB15 6LN Aberdeen City","tags": ["Fitness", "Football"], "phone": "01224 317430", "lat":"57.1492665073474", "lng": "-2.16949939727783"},
    "/ServiceProvider/Facility/index.html?id=1f4b4066-66c5-4569-aa43-9aef00f86a44": {"title": "Old Craigie Road Allotments Association, Dundee", "url":"/ServiceProvider/Facility/index.html?id=1f4b4066-66c5-4569-aa43-9aef00f86a44","short_address": "Old Craigie Road, Dundee,  Dundee City", "tags":["Gardening"], "phone": null, "lat": "56.4762694144973", "lng":"-2.94173419475555"},
    "/ServiceProvider/Facility/index.html?id=be9e9578-07a3-43f5-aea2-9aef00f52aad": {"title": "Magadelen Green Allotments, Dundee", "url":"/ServiceProvider/Facility/index.html?id=be9e9578-07a3-43f5-aea2-9aef00f52aad","short_address": "Richmond Terrace, Dundee, DD2 1BQ Dundee City", "tags":["Gardening"], "phone": null, "lat": "56.4550077635013", "lng":"-3.00239235162735"},
    "/ServiceProvider/Facility/index.html?id=bbbee713-9c38-4ded-bfaf-9b12011078f4": {"title": "Garioch Community Centre, Inverurie", "url":"/ServiceProvider/Facility/index.html?id=bbbee713-9c38-4ded-bfaf-9b12011078f4","short_address": "Garioch Community Centre, Chelsea Road, Inverurie, AB51 3PLAberdeenshire", "tags": ["Hoop Sports", "Gymnastics", "Dancing"], "phone":"01467 620353", "lat": "57.284123", "lng": "-2.377955"},
    "/ServiceProvider/Facility/index.html?id=f96f83b1-ab4e-47f3-8e3e-9ae40102677d": {"title": "Panmure Masonic Halls, Arbroath", "url":"/ServiceProvider/Facility/index.html?id=f96f83b1-ab4e-47f3-8e3e-9ae40102677d","short_address": "19 Hill Street, Arbroath, DD11 1AQ Angus", "tags":["Fitness"], "phone": "01241 875798", "lat": "56.558419", "lng": "-2.580614"},
    "/ServiceProvider/Facility/index.html?id=2cd207fe-f4c9-4b2b-902b-9b31010aab1c": {"title": "Links Parade Park, Carnoustie", "url":"/ServiceProvider/Facility/index.html?id=2cd207fe-f4c9-4b2b-902b-9b31010aab1c","short_address": "Links Parade, Carnoustie,  Angus", "tags": ["Play"], "phone":null, "lat": "56.4987968187402", "lng": "-2.71089792251587"},
    "/ServiceProvider/Facility/index.html?id=6e25ef20-38d7-48f0-a7e2-9afe0104f74a": {"title": "Drumoig Hotel Golf Resort, St Andrews", "url":"/ServiceProvider/Facility/index.html?id=6e25ef20-38d7-48f0-a7e2-9afe0104f74a","short_address": "Drumoig, Leuchars, St Andrews, KY16 Fife", "tags": ["Golf"],"phone": "01382 541898", "lat": "56.4148509767757", "lng":"-2.90569067001343"},
    "/ServiceProvider/Facility/index.html?id=8990121f-55da-4269-b46d-9b0c00c33165": {"title": "Keyhead Squash Club, Peterhead", "url":"/ServiceProvider/Facility/index.html?id=8990121f-55da-4269-b46d-9b0c00c33165","short_address": "Keyhead Squash Club, Keyhead, St. Fergus, Peterhead, AB42 3HEAberdeenshire", "tags": ["Racquet Sports"], "phone": "01779 821388", "lat":"57.5677830110779", "lng": "-1.84055328369141"},
    "/ServiceProvider/Facility/index.html?id=329365b6-6aff-4cfd-99c1-9ada00a68751": {"title": "Inch Bowling Club, Montrose", "url":"/ServiceProvider/Facility/index.html?id=329365b6-6aff-4cfd-99c1-9ada00a68751","short_address": "Caird Avenue, Rossie Island, Montrose, DD10 9NP Angus","tags": ["Bowling"], "phone": null, "lat": "56.703056", "lng": "-2.476405"},
    "/ServiceProvider/Facility/index.html?id=456f1dc2-07ed-4b63-85f3-9b0c0097956b": {"title": "Turriff Tennis Club, Turriff", "url":"/ServiceProvider/Facility/index.html?id=456f1dc2-07ed-4b63-85f3-9b0c0097956b","short_address": "Turriff Tennis Club, Bowling Green Road, Turriff, AB53 4DHAberdeenshire", "tags": ["Racquet Sports"], "phone": "01888 563800", "lat":"57.536226516195", "lng": "-2.45091676712036"},
    "/ServiceProvider/Facility/index.html?id=198190eb-3eae-4e12-ac40-9bd200feef0a": {"title": "Love Yoga Studio, Aberdeen", "url":"/ServiceProvider/Facility/index.html?id=198190eb-3eae-4e12-ac40-9bd200feef0a","short_address": "42 Union Terrace, Aberdeen, AB10 1NP Aberdeen City", "tags":["Fitness"], "phone": "01569 764184", "lat": "57.147516", "lng": "-2.105769"},
    "/ServiceProvider/Facility/index.html?id=d755538f-a861-4f6e-9698-9b130108a0a2": {"title": "Linden Community Centre, Huntly", "url":"/ServiceProvider/Facility/index.html?id=d755538f-a861-4f6e-9698-9b130108a0a2","short_address": "Castle Avenue, Huntly, AB54 6EW Aberdeenshire", "tags":["Fitness", "Bowling"], "phone": "01466 792502", "lat": "57.445122", "lng":"-2.690226"},
    "/ServiceProvider/Facility/index.html?id=6ac2e7e9-a60f-4232-a3ed-9b0800d04990": {"title": "Abernethy Golf Club, Inverness-shire", "url":"/ServiceProvider/Facility/index.html?id=6ac2e7e9-a60f-4232-a3ed-9b0800d04990","short_address": "Nethy Bridge, Inverness-shire, PH25 3EB Highland", "tags":["Golf"], "phone": "01479 821305", "lat": "57.268238", "lng": "-3.654874"},
    "/ServiceProvider/Facility/index.html?id=acbf0f89-37b2-4a16-b009-9b1800ffe5fd": {"title": "Elgin Outdoor Bowling Club, Elgin, Moray", "url":"/ServiceProvider/Facility/index.html?id=acbf0f89-37b2-4a16-b009-9b1800ffe5fd","short_address": "10 Reidhaven Street, Elgin, Moray, IV30 1QG Moray", "tags":["Bowling"], "phone": "01343 540165", "lat": "57.6459977907708", "lng":"-3.31381559371948"},
    "/ServiceProvider/Facility/index.html?id=acbb824f-29b7-4d8a-90a6-9aea00b81270": {"title": "Curves Dundee East, Broughty Ferry", "url":"/ServiceProvider/Facility/index.html?id=acbb824f-29b7-4d8a-90a6-9aea00b81270","short_address": "Unit 2, Panmurefield Village, 135 Lawers Drive, BroughtyFerry, DD5 3UP Dundee City", "tags": ["Fitness"], "phone": "01382 738228","lat": "56.483681", "lng": "-2.852768"},
    "/ServiceProvider/Facility/index.html?id=097da0e0-1878-43aa-a8e0-9b1500b22181": {"title": "Kingswells Village Hall, Aberdeen", "url":"/ServiceProvider/Facility/index.html?id=097da0e0-1878-43aa-a8e0-9b1500b22181","short_address": "Kingswells Village Hall, Old Skene Road, Kingswells,Aberdeen, AB15 8QA Aberdeen City", "tags": ["Dancing", "Fitness", "MartialArts"], "phone": null, "lat": "57.147293", "lng": "-2.213357"},
    "/ServiceProvider/Facility/index.html?id=1bbeaea0-ce94-45ef-bbd0-9b1500bf3a7e": {"title": "Kintore Village Hall, Inverurie", "url":"/ServiceProvider/Facility/index.html?id=1bbeaea0-ce94-45ef-bbd0-9b1500bf3a7e","short_address": "Kintore Village Hall, School Road, Kintore, Inverurie, AB510UG Aberdeenshire", "tags": ["Dancing", "Fitness"], "phone": null, "lat":"57.2350218287261", "lng": "-2.3450231552124"},
    "/ServiceProvider/Facility/index.html?id=37437586-2b2e-4ebd-9142-9ae000e071ec": {"title": "Brechin Cricket Club, Brechin", "url":"/ServiceProvider/Facility/index.html?id=37437586-2b2e-4ebd-9142-9ae000e071ec","short_address": "Guthrie Park, Brechin, DD9 7EA Angus", "tags": ["Rugby", "BatAnd Ball"], "phone": "01356 624793", "lat": "56.728146", "lng": "-2.646522"},
    "/ServiceProvider/Facility/index.html?id=5d666a56-8c7a-4661-bbdb-9b1b010ea890": {"title": "Kemnay Pleasure Park, Kemnay", "url":"/ServiceProvider/Facility/index.html?id=5d666a56-8c7a-4661-bbdb-9b1b010ea890","short_address": "Kemnay Pleasure Park, Grove Road, Kemnay, AB51 5RAAberdeenshire", "tags": ["Bat And Ball", "Football", "Racquet Sports"],"phone": null, "lat": "57.232617906945", "lng": "-2.44587421417236"},
    "/ServiceProvider/Facility/index.html?id=ca441638-d5be-4cd4-bdc9-9b20009d7cb8": {"title": "Newtyle Bowling Club, Newtyle", "url":"/ServiceProvider/Facility/index.html?id=ca441638-d5be-4cd4-bdc9-9b20009d7cb8","short_address": "Newtyle, PH12 8TT Angus", "tags": ["Bowling"], "phone":"01828 650433", "lat": "56.559626", "lng": "-3.145719"},
    "/ServiceProvider/Facility/index.html?id=b5942d63-ea3f-420e-b260-9b0d01072cce": {"title": "Berryhill Driving Range, Peterhead", "url":"/ServiceProvider/Facility/index.html?id=b5942d63-ea3f-420e-b260-9b0d01072cce","short_address": "Longside Road, Peterhead, AB42 3JY Aberdeenshire", "tags":["Golf"], "phone": "01779 472225", "lat": "57.507276", "lng": "-1.841284"},
    "/ServiceProvider/Facility/index.html?id=f84e8693-8e7b-4a0d-9ada-9b0700d8fd01": {"title": "Forres Golf Club, Forres", "url":"/ServiceProvider/Facility/index.html?id=f84e8693-8e7b-4a0d-9ada-9b0700d8fd01","short_address": "Muiryshade, Forres, IV36 2RD Moray", "tags": ["Golf"],"phone": "01309 672250", "lat": "57.6103484022738", "lng":"-3.58825922012329"},
    "/ServiceProvider/Facility/index.html?id=5bb93253-13ea-47a8-81b8-9b0a00c61e2b": {"title": "Princess Royal Sports Club, Banff", "url":"/ServiceProvider/Facility/index.html?id=5bb93253-13ea-47a8-81b8-9b0a00c61e2b","short_address": "56 Airlie Gardens, Banff, AB45 1AZ Aberdeenshire", "tags":["Fitness", "Football"], "phone": "01261 818303", "lat": "57.6627132570745","lng": "-2.51827239990234"},
    "/ServiceProvider/Facility/index.html?id=ecc3cb09-6adc-47c8-90c5-9ae10111e414": {"title": "Carnoustie High School, Carnoustie", "url":"/ServiceProvider/Facility/index.html?id=ecc3cb09-6adc-47c8-90c5-9ae10111e414","short_address": "Shanwell Road, Carnoustie, DD7 7SS Angus", "tags": ["RacquetSports", "Swimming", "Football", "Fitness", "Hoop Sports", "Rugby"], "phone":"01241 852601", "lat": "56.5060799693429", "lng": "-2.72321462631226"},
    "/ServiceProvider/Facility/index.html?id=5a74bf4c-1b95-42b1-8481-9ae20108b257": {"title": "Kirriemuir Guide Hall, Kirriemuir", "url":"/ServiceProvider/Facility/index.html?id=5a74bf4c-1b95-42b1-8481-9ae20108b257","short_address": "The Roods, Kirriemuir,  Angus", "tags": ["Dancing"], "phone":null, "lat": "56.674005", "lng": "-3.004978"},
    "/ServiceProvider/Facility/index.html?id=230edadc-0796-4183-846a-9b1400ee7686": {"title": "St Andrews Church Hall, Turriff", "url":"/ServiceProvider/Facility/index.html?id=230edadc-0796-4183-846a-9b1400ee7686","short_address": "Balmellie Road, Turriff, AB53 4DP Aberdeenshire", "tags":["Racquet Sports"], "phone": null, "lat": "57.537643", "lng": "-2.453083"},
    "/ServiceProvider/Facility/index.html?id=da8f5cb8-d896-4014-8162-9ad600f1efa0": {"title": "Edzell Golf Club, Edzell", "url":"/ServiceProvider/Facility/index.html?id=da8f5cb8-d896-4014-8162-9ad600f1efa0","short_address": "High Street, Edzell, DD9 7TF Angus", "tags": ["Golf"],"phone": "01356 647283", "lat": "56.806791", "lng": "-2.653542"},
    "/ServiceProvider/Woodland/index.html?id=37c54502-f5fb-49b0-b53f-9ae300c6fc2a": {"title": "Denlethen Wood - Oatyhill Entrance", "url":"/ServiceProvider/Woodland/index.html?id=37c54502-f5fb-49b0-b53f-9ae300c6fc2a","short_address": " Aberdeenshire", "tags": ["Walking"], "phone": "01466794161", "lat": "56.8228940537822", "lng": "-2.49074279184167"},
    "/ServiceProvider/Facility/index.html?id=b4e643ab-f1be-492f-84a7-9b1a009f6335": {"title": "Moray Firth Water Sports Association Clubhouse, Lossiemouth", "url":"/ServiceProvider/Facility/index.html?id=b4e643ab-f1be-492f-84a7-9b1a009f6335","short_address": "Moray Firth Water Sports Association clubhouse, West Beach,Lossiemouth, IV31 6SP Moray", "tags": ["Water Sports"], "phone": null, "lat":"57.721458", "lng": "-3.341323"},
    "/ServiceProvider/Facility/index.html?id=39df1557-27ae-488e-a09e-9b3100fcae98": {"title": "Provost Chapel Road Play Area, Arbroath", "url":"/ServiceProvider/Facility/index.html?id=39df1557-27ae-488e-a09e-9b3100fcae98","short_address": "Provost Chapel Road Play Area, Provost Chapel Road, Arbroath,DD11 4HH Angus", "tags": ["Play"], "phone": null, "lat": "56.5715417559011","lng": "-2.59000539779663"},
    "/ServiceProvider/Facility/index.html?id=ea2e42cb-8426-459b-85ad-9af000cae142": {"title": "East Church Hall, Dundee", "url":"/ServiceProvider/Facility/index.html?id=ea2e42cb-8426-459b-85ad-9af000cae142","short_address": "East Church, 370 Queens Street, Broughty Ferry, Dundee, DD52HQ Dundee City", "tags": ["Fitness"], "phone": "01382477209", "lat":"56.4683167666605", "lng": "-2.87455022335052"},
    "/ServiceProvider/Facility/index.html?id=35d29c3e-070b-4315-baca-9ada00bfb8c5": {"title": "Parkview Bowling Club, Brechin", "url":"/ServiceProvider/Facility/index.html?id=35d29c3e-070b-4315-baca-9ada00bfb8c5","short_address": "Parkview, Brechin, DD9 7AT Angus", "tags": ["Bowling"],"phone": null, "lat": "56.7357667712677", "lng": "-2.64925003051758"},
    "/ServiceProvider/Facility/index.html?id=fbe0bbca-9ca3-42f5-8ded-9b170105b469": {"title": "Gordon Park, Aberdeenshire", "url":"/ServiceProvider/Facility/index.html?id=fbe0bbca-9ca3-42f5-8ded-9b170105b469","short_address": "Off Station Road, Modley Place or Park Road, Ellon,Aberdeenshire,  Aberdeenshire", "tags": ["Racquet Sports", "Bat And Ball","Dancing", "Play", "Football"], "phone": null, "lat": "57.3646936323224","lng": "-2.08171606063843"},
    "/ServiceProvider/Facility/index.html?id=a8c4fb9a-f0d7-4e80-850a-9aee00ebd53e": {"title": "Olympia Leisure Centre, Dundee", "url":"/ServiceProvider/Facility/index.html?id=a8c4fb9a-f0d7-4e80-850a-9aee00ebd53e","short_address": "Earl Grey Place, Dundee, DD1 4DF Dundee City", "tags":["Swimming", "Fitness", "Walking"], "phone": "01382 432300", "lat":"56.4579793906239", "lng": "-2.96734392642975"},
    "/ServiceProvider/Facility/index.html?id=97e4aa65-e2dd-4951-92e5-9b1a00f22b94": {"title": "Jessiman Dance School, Huntly", "url":"/ServiceProvider/Facility/index.html?id=97e4aa65-e2dd-4951-92e5-9b1a00f22b94","short_address": "Jessiman Dance School, The Studio, McVeagh Street, Huntly,AB54 8BN Aberdeen City", "tags": ["Dancing"], "phone": "01466 794048", "lat":"57.447843", "lng": "-2.784204"},
    "/ServiceProvider/Facility/index.html?id=26e70dc8-f08b-4fa5-b535-9af1010b51a7": {"title": "Orchar Park, Dundee", "url":"/ServiceProvider/Facility/index.html?id=26e70dc8-f08b-4fa5-b535-9af1010b51a7","short_address": "Orchar Park, Monifieth Road, Broughty Ferry, Dundee, DD5 2RZDundee City", "tags": ["Football", "Walking", "Bowling", "Play"], "phone":null, "lat": "56.4681093355209", "lng": "-2.86275386810303"},
    "/ServiceProvider/Facility/index.html?id=5af243b2-1b63-407d-937f-9aef00d109e8": {"title": "Alba Chiropractic Clinic, Dundee", "url":"/ServiceProvider/Facility/index.html?id=5af243b2-1b63-407d-937f-9aef00d109e8","short_address": "Alba Chiropractic Clinic, 146 Princes Street, Dundee, DD4 6DGDundee City", "tags": ["Fitness"], "phone": "01382 461081", "lat": "56.46709","lng": "-2.958205"},
    "/ServiceProvider/Facility/index.html?id=87c66b86-fa53-43cb-a197-9b1b00a924fc": {"title": "Peterhead Dance Studio, Peterhead", "url":"/ServiceProvider/Facility/index.html?id=87c66b86-fa53-43cb-a197-9b1b00a924fc","short_address": "Peterhead Dance Studio, 67 Broad Street, Peterhead, AB42 1JLAberdeenshire", "tags": ["Dancing"], "phone": "01779 470685", "lat":"57.505065", "lng": "-1.775275"},
    "/ServiceProvider/Facility/index.html?id=71bd8e52-f002-4993-8488-9b2e00f8a2d2": {"title": "Newtyle Park, Newtyle", "url":"/ServiceProvider/Facility/index.html?id=71bd8e52-f002-4993-8488-9b2e00f8a2d2","short_address": "Newtyle,  Angus", "tags": ["Football", "Play"], "phone":null, "lat": "56.5605703405544", "lng": "-3.14477205276489"},
    "/ServiceProvider/Woodland/index.html?id=7630f536-0e92-4a37-aaa6-9ae300c6fc7e": {"title": "Fetteresso - Quithel Entrance", "url":"/ServiceProvider/Woodland/index.html?id=7630f536-0e92-4a37-aaa6-9ae300c6fc7e","short_address": " Aberdeenshire", "tags": ["Cycling", "Walking"], "phone":"01466 794161", "lat": "56.9607755473639", "lng": "-2.36920880799528"},
    "/ServiceProvider/Facility/index.html?id=538e4b58-06fd-41e8-89fb-9b0700b31d8c": {"title": "Banchory Golf Club, Banchory", "url":"/ServiceProvider/Facility/index.html?id=538e4b58-06fd-41e8-89fb-9b0700b31d8c","short_address": "Kinneskie Road, Banchory, AB31 5TA Aberdeenshire", "tags":["Golf"], "phone": "01330 822447", "lat": "57.050613", "lng": "-2.507451"},
    "/ServiceProvider/Facility/index.html?id=558ed10a-d663-417d-837f-9b0c00e73b71": {"title": "Cornhill Community Centre, Aberdeen", "url":"/ServiceProvider/Facility/index.html?id=558ed10a-d663-417d-837f-9b0c00e73b71","short_address": "Cornhill Community Centre, Cornhill Drive, Beechwood Road,Aberdeen, AB16 5BL Aberdeen City", "tags": ["Football", "Racquet Sports"],"phone": "01224 493302", "lat": "57.1603342664496", "lng":"-2.13121891021729"},
    "/ServiceProvider/Facility/index.html?id=6c4959c8-1903-496c-9a0a-9b1900ef66d5": {"title": "Moray Leisure Centre, Elgin", "url":"/ServiceProvider/Facility/index.html?id=6c4959c8-1903-496c-9a0a-9b1900ef66d5","short_address": "Borough Briggs Road, Elgin, IV30 1AP Moray", "tags": ["WaterSports", "Ice Sports", "Track And Field", "Fitness", "Walking", "RacquetSports", "Swimming"], "phone": "01343 550033", "lat": "57.651750341488", "lng":"-3.32377195358276"},
    "/ServiceProvider/Facility/index.html?id=0da28c2f-c73d-4f72-aa72-9cd90107a2b2": {"title": "Aden Country Park, Mintlaw", "url":"/ServiceProvider/Facility/index.html?id=0da28c2f-c73d-4f72-aa72-9cd90107a2b2","short_address": "New Pitsligo road, Mintlaw, AB42 8FQ Aberdeenshire", "tags":["Play"], "phone": "01261 813200", "lat": "57.5213425400026", "lng":"-2.02952027320862"},
    "/ServiceProvider/Facility/index.html?id=9f595d00-7b5e-444a-86d6-9b1b00eeab63": {"title": "Sansum Black Belt Academy, Elgin", "url":"/ServiceProvider/Facility/index.html?id=9f595d00-7b5e-444a-86d6-9b1b00eeab63","short_address": "Sansum Fitness Studio, Edgar Road, Elgin, IV30 6UQ Moray","tags": ["Martial Arts", "Fitness"], "phone": "01343 556556", "lat":"57.638929", "lng": "-3.318896"},
    "/ServiceProvider/Facility/index.html?id=84937318-45d6-489a-a390-9b1800d2d6df": {"title": "Seaton Park, Aberdeen", "url":"/ServiceProvider/Facility/index.html?id=84937318-45d6-489a-a390-9b1800d2d6df","short_address": "Don Street, Bridge of Don, Aberdeen,  Aberdeen City", "tags":["Walking", "Water Sports", "Play", "Football", "Track And Field"], "phone":"01224 489273", "lat": "57.173126", "lng": "-2.102133"},
    "/ServiceProvider/Woodland/index.html?id=2f1b03d6-7cb6-4078-84c6-9ae300c6fb28": {"title": "Bennachie - Back O'Bennachie Car Park", "url":"/ServiceProvider/Woodland/index.html?id=2f1b03d6-7cb6-4078-84c6-9ae300c6fb28","short_address": " Aberdeenshire", "tags": ["Equestrian", "Walking", "WoodlandActivity"], "phone": "01466 794161", "lat": "57.3104516033696", "lng":"-2.56030659049401"},
    "/ServiceProvider/Facility/index.html?id=a7272aa8-aad1-48e3-8278-9b1a00e68e0a": {"title": "Morriston Playing Fields, Elgin", "url":"/ServiceProvider/Facility/index.html?id=a7272aa8-aad1-48e3-8278-9b1a00e68e0a","short_address": "Morriston Playing Fields, Morriston Road, Elgin, IV30 4NDMoray", "tags": ["Football", "Rugby", "Track And Field"], "phone": null, "lat":"57.6527262326763", "lng": "-3.32838535308838"},
    "/ServiceProvider/Facility/index.html?id=e0b62080-eef0-43e2-9f68-9af200ae7b67": {"title": "Riverside Park, Dundee", "url":"/ServiceProvider/Facility/index.html?id=e0b62080-eef0-43e2-9f68-9af200ae7b67","short_address": "Riverside Park, Riverside Drive, Dundee, DD2 1UQ DundeeCity", "tags": ["Football", "Stick And Ball"], "phone": null, "lat":"56.4535981972341", "lng": "-3.00673484802246"},
    "/ServiceProvider/Facility/index.html?id=634985fc-0f28-4f25-9370-9aee010d6332": {"title": "Arklay Terrace Allotments", "url":"/ServiceProvider/Facility/index.html?id=634985fc-0f28-4f25-9370-9aee010d6332","short_address": " Dundee City", "tags": ["Gardening"], "phone": "01382307475", "lat": "56.4759731460207", "lng": "-2.96392679214478"},
    "/ServiceProvider/Facility/index.html?id=fe2b8bd4-76cf-42e2-8199-9ada00fa3508": {"title": "Winter Place, Carnoustie", "url":"/ServiceProvider/Facility/index.html?id=fe2b8bd4-76cf-42e2-8199-9ada00fa3508","short_address": "Winter Place, Carnoustie, DD7 Angus", "tags": ["Play"],"phone": "08452 777 778", "lat": "56.5027405519892", "lng":"-2.69928932189941"},
    "/ServiceProvider/Facility/index.html?id=7575ad70-078c-47ca-9484-9b2e00ad157f": {"title": "Arbirlot Place Play Park, Arbroath", "url":"/ServiceProvider/Facility/index.html?id=7575ad70-078c-47ca-9484-9b2e00ad157f","short_address": "Arbirlot Place, Arbroath,  Angus", "tags": ["Play"], "phone":"08452 777 778", "lat": "56.5572948509631", "lng": "-2.61056184768677"},
    "/ServiceProvider/Facility/index.html?id=57c50d17-5e8c-41b5-b5c9-9ad600ef4662": {"title": "Carnoustie Golf Links, Carnoustie", "url":"/ServiceProvider/Facility/index.html?id=57c50d17-5e8c-41b5-b5c9-9ad600ef4662","short_address": "20 Links Parade, Carnoustie, DD7 7JF Angus", "tags":["Golf"], "phone": null, "lat": "56.4977664064437", "lng":"-2.71604776382446"},
    "/ServiceProvider/Facility/index.html?id=4ce594b6-7472-4ce6-8ffc-9b6000cb929a": {"title": "Grey Lodge Settlement, Dundee", "url":"/ServiceProvider/Facility/index.html?id=4ce594b6-7472-4ce6-8ffc-9b6000cb929a","short_address": "21 South George Street, Dundee, DD1 2QF Dundee City", "tags":["Walking"], "phone": "01382 223943", "lat": "56.467949", "lng": "-2.965563"},
    "/ServiceProvider/Facility/index.html?id=25b932c9-a181-4329-a2df-9aea00bfa1d3": {"title": "Dudhope Bowling Club, Dundee", "url":"/ServiceProvider/Facility/index.html?id=25b932c9-a181-4329-a2df-9aea00bfa1d3","short_address": "Dudhope Bowling Club, Adelaide Place, Dundee, DD1 3RF DundeeCity", "tags": ["Bowling"], "phone": "01382 224516", "lat": "56.4683552894617","lng": "-2.98302412033081"},
    "/ServiceProvider/Facility/index.html?id=91276d32-8c0b-47e3-8fc2-9b0d00be2df4": {"title": "Newtonhill & District Bowling Club, Newtonhill", "url":"/ServiceProvider/Facility/index.html?id=91276d32-8c0b-47e3-8fc2-9b0d00be2df4","short_address": "Bowling Pavilion, Old Mill Road, Newtonhill, AB39 3TZAberdeen City", "tags": ["Bowling"], "phone": "01569 730578", "lat":"57.030513780143", "lng": "-2.14930772781372"},
    "/ServiceProvider/Facility/index.html?id=17c46529-2589-4fed-9947-9b0700de4dc0": {"title": "Banff Swimming Pool, Banff", "url":"/ServiceProvider/Facility/index.html?id=17c46529-2589-4fed-9947-9b0700de4dc0","short_address": "Banff Swimming Pool, Bellevue Road, Banff, AB45 1BJAberdeenshire", "tags": ["Swimming", "Fitness", "Water Sports"], "phone":"01261 815754", "lat": "57.661909", "lng": "-2.529332"},
    "/ServiceProvider/Facility/index.html?id=3e3b8502-8ea9-4e33-96a3-9ce000f3d47b": {"title": "Boharm Hall, Mulben", "url":"/ServiceProvider/Facility/index.html?id=3e3b8502-8ea9-4e33-96a3-9ce000f3d47b","short_address": "Boharm Hall, Mulben, AB55 6XJ Moray", "tags": ["Dancing"],"phone": null, "lat": "57.541589", "lng": "-3.081522"},
    "/ServiceProvider/Facility/index.html?id=0e2525f2-749b-4af9-b483-9b1a0115257e": {"title": "Buckie Town House, Buckie", "url":"/ServiceProvider/Facility/index.html?id=0e2525f2-749b-4af9-b483-9b1a0115257e","short_address": "Buckie Town House, Cluny Place, Buckie, AB56 1PZ Moray","tags": ["Dancing"], "phone": "01542 832691", "lat": "57.674676", "lng":"-2.970092"},
    "/ServiceProvider/Facility/index.html?id=303b6706-9f48-4987-a602-9b1900e0c792": {"title": "Forres Swimming Pool And Fitness Centre, Forres", "url":"/ServiceProvider/Facility/index.html?id=303b6706-9f48-4987-a602-9b1900e0c792","short_address": "Forres Swimming Pool & Fitness Centre, Burdsyard Road,Forres, IV36 1FG Moray", "tags": ["Swimming", "Fitness"], "phone": "01309672984", "lat": "57.603678", "lng": "-3.611797"},
    "/ServiceProvider/Facility/index.html?id=767d9e11-263b-4ac2-9f24-9b0b00f6db9a": {"title": "Kincorth Sports Centre, Aberdeen", "url":"/ServiceProvider/Facility/index.html?id=767d9e11-263b-4ac2-9f24-9b0b00f6db9a","short_address": "Kincorth Sports Centre, Corthan Crescent, Kincorth, Aberdeen,AB12 5BB Aberdeen City", "tags": ["Fitness", "Racquet Sports", "Play","Football", "Hoop Sports", "Dancing", "Gymnastics", "Volleyball", "Stick AndBall", "Martial Arts"], "phone": "01224 879759", "lat": "57.1235861013412","lng": "-2.10303425788879"},
    "/ServiceProvider/Facility/index.html?id=d71ee857-9274-439a-afcf-9ad600fb5e59": {"title": "Forfar Swimming Pool, Forfar", "url":"/ServiceProvider/Facility/index.html?id=d71ee857-9274-439a-afcf-9ad600fb5e59","short_address": "The Vennel, Forfar, DD8 2AN Angus", "tags": ["Swimming","Fitness"], "phone": "01307 462995", "lat": "56.643168", "lng": "-2.886872"},
    "/ServiceProvider/Facility/index.html?id=0c04f9ab-b3bc-4525-9b79-9b0d0133f2ad": {"title": "Alford Golf Club, Alford", "url":"/ServiceProvider/Facility/index.html?id=0c04f9ab-b3bc-4525-9b79-9b0d0133f2ad","short_address": "Montgarrie Road, Alford, AB33 8AE Aberdeenshire", "tags":["Golf"], "phone": "019755 62178", "lat": "57.2342902169469", "lng":"-2.70190715789795"},
    "/ServiceProvider/Facility/index.html?id=920429c8-22a3-4cc1-910b-9b1800c6781a": {"title": "Middleton Park Community Centre, Aberdeen", "url":"/ServiceProvider/Facility/index.html?id=920429c8-22a3-4cc1-910b-9b1800c6781a","short_address": "Middleton Park Community Centre, Whitestripes Street, BridgeOf Don, Aberdeen, AB22 8WD Aberdeen City", "tags": ["Dancing"], "phone": "01224705439", "lat": "57.189231", "lng": "-2.122301"},
    "/ServiceProvider/Facility/index.html?id=c79fc87a-0ecc-466d-b050-9b2f0113bb42": {"title": "Cliffburn Park, Arbroath", "url":"/ServiceProvider/Facility/index.html?id=c79fc87a-0ecc-466d-b050-9b2f0113bb42","short_address": "Cliffburn Road, Arbroath,  Angus", "tags": ["Football"],"phone": "01241 431060", "lat": "56.5630533747512", "lng":"-2.56292581558228"},
    "/ServiceProvider/Facility/index.html?id=96f6b50d-9335-4cfd-99ea-9b1a00b78dd9": {"title": "The Huntly Hotel, Huntly", "url":"/ServiceProvider/Facility/index.html?id=96f6b50d-9335-4cfd-99ea-9b1a00b78dd9","short_address": "18 The Square, Huntly, AB54 8BR Aberdeenshire", "tags":["Dancing"], "phone": "01466 792703", "lat": "57.447626", "lng": "-2.785749"},
    "/ServiceProvider/Facility/index.html?id=e778bda2-4c1e-485d-84a0-9c2d00eae45f": {"title": "Broughty Castle, Dundee", "url":"/ServiceProvider/Facility/index.html?id=e778bda2-4c1e-485d-84a0-9c2d00eae45f","short_address": "Castle Approach, Broughty Ferry, Dundee, DD5 2TF DundeeCity", "tags": ["Walking"], "phone": "01382 436916", "lat": "56.46294", "lng":"-2.870199"},
    "/ServiceProvider/Facility/index.html?id=35a310e9-54d1-4a08-83b1-9ae800e219d3": {"title": "Mania, Arbroath", "url":"/ServiceProvider/Facility/index.html?id=35a310e9-54d1-4a08-83b1-9ae800e219d3","short_address": "Unit 1, Block 2, Lindsay Street, Arbroath, DD11 1RP Angus","tags": ["Dancing"], "phone": "01241 877700", "lat": "56.560773", "lng":"-2.586296"},
    "/ServiceProvider/Facility/index.html?id=6e0b05bd-0c62-4576-abb2-9b0d00a32701": {"title": "Kemnay Bowling Club, Kemnay", "url":"/ServiceProvider/Facility/index.html?id=6e0b05bd-0c62-4576-abb2-9b0d00a32701","short_address": "Victoria Terrace, Kemnay, AB51 5RL Aberdeenshire", "tags":["Bowling"], "phone": "01467 642671", "lat": "57.2332798720555", "lng":"-2.43967294692993"},
    "/ServiceProvider/Facility/index.html?id=cf4ba343-2ca1-43a0-bc12-9b1a00bf6935": {"title": "Fife Park, Keith", "url":"/ServiceProvider/Facility/index.html?id=cf4ba343-2ca1-43a0-bc12-9b1a00bf6935","short_address": "Fife Park, Keith, AB55 5DY Moray", "tags": ["Football", "BatAnd Ball", "Play"], "phone": "01542 882222", "lat": "57.544635", "lng":"-2.959851"},
    "/ServiceProvider/Facility/index.html?id=24ebe44f-6d15-4de4-b1ca-9aea00fd867a": {"title": "Broughty Ferry Lawn Tennis Club, Dundee", "url":"/ServiceProvider/Facility/index.html?id=24ebe44f-6d15-4de4-b1ca-9aea00fd867a","short_address": "Broughty Ferry Lawn Tennis Club, Elcho Drive, Broughty Ferry,Dundee, DD5 3TB Dundee City", "tags": ["Racquet Sports"], "phone": "01382778613", "lat": "56.482184", "lng": "-2.857524"},
    "/ServiceProvider/Facility/index.html?id=450ca51c-58df-48d1-8d13-9b1b00c5c7d1": {"title": "Forres Academy, Forres", "url":"/ServiceProvider/Facility/index.html?id=450ca51c-58df-48d1-8d13-9b1b00c5c7d1","short_address": "Forres Academy, Burdsyard Road, Forres, IV36 1FG Moray","tags": ["Fitness"], "phone": "01309 672271", "lat": "57.603678", "lng":"-3.611797"},
    "/ServiceProvider/Facility/index.html?id=b3d37fb0-2b68-4c01-b366-9b0b00a4cbab": {"title": "Millennium Leisure Club, Peterhead", "url":"/ServiceProvider/Facility/index.html?id=b3d37fb0-2b68-4c01-b366-9b0b00a4cbab","short_address": "14 St Andrews Street, Peterhead, AB42 1DS Aberdeenshire","tags": ["Fitness", "Martial Arts"], "phone": "01779 476666", "lat":"57.504359", "lng": "-1.777299"},
    "/ServiceProvider/Facility/index.html?id=ef4bd091-77bf-4299-9b8d-9b1900ce8c36": {"title": "Cabin Fever Bike Hire, Ballater", "url":"/ServiceProvider/Facility/index.html?id=ef4bd091-77bf-4299-9b8d-9b1900ce8c36","short_address": "Cabin Fever Bike Hire, The Activity Station, Station Square,Ballater, AB35 5RB Aberdeenshire", "tags": ["Cycling", "Water Sports"],"phone": "01339 754004", "lat": "57.050212", "lng": "-3.040626"},
    "/ServiceProvider/Facility/index.html?id=f8885efe-bc7a-43f2-8f2a-9b1600a7340e": {"title": "Boomerangs Adventure Play, Aberdeenshire", "url":"/ServiceProvider/Facility/index.html?id=f8885efe-bc7a-43f2-8f2a-9b1600a7340e","short_address": "94 Commerce Street, Fraserburgh, Aberdeenshire, AB43 9AQAberdeenshire", "tags": ["Play"], "phone": "01346 511234", "lat":"57.6912357435092", "lng": "-2.00946807861328"},
    "/ServiceProvider/Facility/index.html?id=7b12b6f2-4af5-4eae-9033-9cd50101a12f": {"title": "Aberdeen Sports Village, Aberdeen", "url":"/ServiceProvider/Facility/index.html?id=7b12b6f2-4af5-4eae-9033-9cd50101a12f","short_address": "Linksfield Road, Aberdeen, AB24 5RU Aberdeen City", "tags":["Fitness", "Dancing", "Track And Field", "Hoop Sports", "Gymnastics","Football"], "phone": "01224 438900", "lat": "57.1618120446182", "lng":"-2.09268093109131"},
    "/ServiceProvider/Facility/index.html?id=c6884428-3322-4df4-ad8f-9b0a01696ae4": {"title": "Deeside Activity Park, Aboyne", "url":"/ServiceProvider/Facility/index.html?id=c6884428-3322-4df4-ad8f-9b0a01696ae4","short_address": "Deeside Activity Park, Dess, Aboyne, AB34 5BD Aberdeenshire","tags": ["Archery", "Cycling", "Orienteering", "Climbing"], "phone": "01339883536", "lat": "57.094849", "lng": "-2.724617"},
    "/ServiceProvider/Facility/index.html?id=26c98e46-0062-4a91-990a-9b060166a5fa": {"title": "Aboyne Swimming Pool and Deeside Community Centre, Aboyne", "url":"/ServiceProvider/Facility/index.html?id=26c98e46-0062-4a91-990a-9b060166a5fa","short_address": "Aboyne Swimming Pool and Deeside Community Centre, BridgeviewRoad, Aboyne, AB34 5JN Aberdeenshire", "tags": ["Water Sports", "Swimming","Fitness", "Climbing", "Racquet Sports", "Jogging", "Gymnastics", "MartialArts"], "phone": "013398 86222", "lat": "57.0749185931616", "lng":"-2.79350996017456"},
    "/ServiceProvider/Facility/index.html?id=c42c0cf7-81a7-4e76-8bab-9b2f00e7786f": {"title": "Bogindollo Play Area, Bogindollo", "url":"/ServiceProvider/Facility/index.html?id=c42c0cf7-81a7-4e76-8bab-9b2f00e7786f","short_address": "Hillview, Bogindollo,  Angus", "tags": ["Play"], "phone":"08452 777 778", "lat": "56.6867381746004", "lng": "-2.86219596862793"},
    "/ServiceProvider/Facility/index.html?id=63e0cbca-af9e-4edb-8b90-9b0700f221ee": {"title": "Banks O'Dee Sports Club, Aberdeen", "url":"/ServiceProvider/Facility/index.html?id=63e0cbca-af9e-4edb-8b90-9b0700f221ee","short_address": "Banks O'Dee Sports Club, Abbotswell Road, Aberdeen, AB12 3ABAberdeen City", "tags": ["Racquet Sports", "Football", "Martial Arts","Fitness", "Hoop Sports", "Volleyball", "Gymnastics"], "phone": "01224 893333","lat": "57.1287981437157", "lng": "-2.09628582000732"},
    "/ServiceProvider/Facility/index.html?id=910e81b5-0e78-4dbf-8dfe-9b1a01173791": {"title": "Linx Ice Arena, Aberdeen", "url":"/ServiceProvider/Facility/index.html?id=910e81b5-0e78-4dbf-8dfe-9b1a01173791","short_address": "Linx Ice Arena, Beach Promenade, Aberdeen, AB24 5NR AberdeenCity", "tags": ["Ice Sports"], "phone": "01224 655406", "lat": "57.155668","lng": "-2.079889"},
    "/ServiceProvider/Facility/index.html?id=03bba39e-615a-496b-8475-9b6000e9e862": {"title": "Boomerang, Dundee", "url":"/ServiceProvider/Facility/index.html?id=03bba39e-615a-496b-8475-9b6000e9e862","short_address": "St Johns Halls, 110 Albert Street, Dundee, DD4 6QN DundeeCity", "tags": ["Fitness", "Dancing"], "phone": "01382 455656", "lat":"56.471031", "lng": "-2.957427"},
    "/ServiceProvider/Facility/index.html?id=4e077bca-2f4a-400f-9184-9b1b009f7bf6": {"title": "Bikelife, Banchory", "url":"/ServiceProvider/Facility/index.html?id=4e077bca-2f4a-400f-9184-9b1b009f7bf6","short_address": "Bikelife, Station Road, Banchory, AB31 3TN Aberdeenshire","tags": ["Cycling"], "phone": "01330 825313", "lat": "57.0518417195543", "lng":"-2.49458312988281"},
    "/ServiceProvider/Facility/index.html?id=a87432e4-4e37-46fa-bbac-9aee00add765": {"title": "Muirhead and Birkhill Bowling Club, Angus", "url":"/ServiceProvider/Facility/index.html?id=a87432e4-4e37-46fa-bbac-9aee00add765","short_address": "Muirhead & Birkhill Bowling Club, Coupar Angus Road,Birkhill, Angus, DD2 5QE Angus", "tags": ["Bowling"], "phone": "01382 580193","lat": "56.4944144118755", "lng": "-3.06016445159912"},
    "/ServiceProvider/Facility/index.html?id=b824ea83-de96-4be0-a429-9b0b00f6d8e9": {"title": "Balnagask Community Centre, Aberdeen", "url":"/ServiceProvider/Facility/index.html?id=b824ea83-de96-4be0-a429-9b0b00f6d8e9","short_address": "Balnagask Road, Aberdeen, AB11 8HZ Aberdeen City", "tags":["Fitness", "Dancing"], "phone": "01224 871206", "lat": "57.1318435003912","lng": "-2.0824670791626"},
    "/ServiceProvider/Facility/index.html?id=0ff91297-e599-461a-aa80-9b3100f9dcf5": {"title": "Middlefield Avenue Play Park, Kirriemuir", "url":"/ServiceProvider/Facility/index.html?id=0ff91297-e599-461a-aa80-9b3100f9dcf5","short_address": "Middlefield Avenue, Knowehead, Kirriemuir,  Angus", "tags":["Play"], "phone": "08452 777 778", "lat": "56.6722635332306", "lng":"-3.01203489303589"},
    "/ServiceProvider/Facility/index.html?id=cbe8be01-8919-49b9-b9d0-9b3000a5ff03": {"title": "Inchmacoble Park, Forfar", "url":"/ServiceProvider/Facility/index.html?id=cbe8be01-8919-49b9-b9d0-9b3000a5ff03","short_address": "Graham Crescent, Forfar,  Angus", "tags": ["Rugby"], "phone":null, "lat": "56.6420468987879", "lng": "-2.9058837890625"},
    "/ServiceProvider/Facility/index.html?id=d77f4e16-742d-4ca3-a1d2-9b1300afef4c": {"title": "Tullos Community Centre, Aberdeen", "url":"/ServiceProvider/Facility/index.html?id=d77f4e16-742d-4ca3-a1d2-9b1300afef4c","short_address": "Girdleness Road, Aberdeen, AB11 8FJ Aberdeen City", "tags":["Fitness", "Bowling"], "phone": "01224 291882", "lat": "57.131559", "lng":"-2.077326"},
    "/ServiceProvider/Facility/index.html?id=1001a846-9ded-404b-9fb5-9ada00fda02f": {"title": "Adams Way Play Area, Montrose", "url":"/ServiceProvider/Facility/index.html?id=1001a846-9ded-404b-9fb5-9ada00fda02f","short_address": "Adams Way, Montrose,  Angus", "tags": ["Play"], "phone":"08452 777 778", "lat": "56.7287514626189", "lng": "-2.46546506881714"},
    "/ServiceProvider/Facility/index.html?id=20289725-e945-4a2e-b75c-9b0c00f37e7e": {"title": "Culter Mills Sports and Recreation Club, Aberdeen", "url":"/ServiceProvider/Facility/index.html?id=20289725-e945-4a2e-b75c-9b0c00f37e7e","short_address": "Culter Mills Sports and Recreation Club, Cairn Road,Peterculter, Aberdeen, AB14 0QD Aberdeen City", "tags": ["Dancing", "Bowling"],"phone": "01224 733578", "lat": "57.0973633546552", "lng":"-2.26168155670166"},
    "/ServiceProvider/Facility/index.html?id=e769d113-5d57-4dd5-b841-9b0f0120b3f0": {"title": "Abernethy Bowling Club, Nethy Bridge", "url":"/ServiceProvider/Facility/index.html?id=e769d113-5d57-4dd5-b841-9b0f0120b3f0","short_address": "Dell Road, Nethy Bridge, PH25 3EG Highland", "tags":["Bowling"], "phone": "01479 821172", "lat": "57.265855", "lng": "-3.640688"},
    "/ServiceProvider/Facility/index.html?id=35ce010b-07f8-40a3-95e7-9b0700b6e4c0": {"title": "Dufftown Golf Club, Dufftown", "url":"/ServiceProvider/Facility/index.html?id=35ce010b-07f8-40a3-95e7-9b0700b6e4c0","short_address": "Tomintoul Road, Dufftown, AB55 4BS Moray", "tags": ["Golf"],"phone": "01340 820325", "lat": "57.4346368851512", "lng":"-3.15155267715454"},
    "/ServiceProvider/Facility/index.html?id=35bf3e58-f82e-4593-ac36-9aef00db13cb": {"title": "The Brae, Dundee", "url":"/ServiceProvider/Facility/index.html?id=35bf3e58-f82e-4593-ac36-9aef00db13cb","short_address": "The Brae, Arbroath Rd, past Linlathen Nursing Home, Dundee,DD5 3NN Dundee City", "tags": ["Equestrian"], "phone": "07885851881", "lat":"56.487334", "lng": "-2.871427"},
    "/ServiceProvider/Facility/index.html?id=5954d963-9285-488d-87ba-9b0c00c9ca6b": {"title": "Carnegie Hall, Aberdeen", "url":"/ServiceProvider/Facility/index.html?id=5954d963-9285-488d-87ba-9b0c00c9ca6b","short_address": "Carnegie Hall, Skene Place, Dyce, Aberdeen, AB21 7AYAberdeenshire", "tags": ["Dancing", "Martial Arts", "Fitness"], "phone": "01224723493", "lat": "57.2051649299966", "lng": "-2.19033479690552"},
    "/ServiceProvider/Facility/index.html?id=ad32b2b0-78d5-418e-a0b3-9b1400c829de": {"title": "St Lawrence Hall, Laurencekirk", "url":"/ServiceProvider/Facility/index.html?id=ad32b2b0-78d5-418e-a0b3-9b1400c829de","short_address": "Conveth Place, Laurencekirk, AB30 1AD Aberdeen City", "tags":["Dancing"], "phone": null, "lat": "56.834785", "lng": "-2.464883"},
    "/ServiceProvider/Facility/index.html?id=ad5f7c9f-8930-4c8b-87dc-9cd900fd9ad3": {"title": "Mineralwell Park, Stonehaven", "url":"/ServiceProvider/Facility/index.html?id=ad5f7c9f-8930-4c8b-87dc-9cd900fd9ad3","short_address": "Mineralwell Park, Stonehaven, AB39 2RD Aberdeenshire","tags": ["Bat And Ball"], "phone": null, "lat": "56.9718017121619", "lng":"-2.21449613571167"},
    "/ServiceProvider/Facility/index.html?id=a8216c76-045c-4120-bae8-9b19010c2283": {"title": "Buckie Community Centre, Buckie", "url":"/ServiceProvider/Facility/index.html?id=a8216c76-045c-4120-bae8-9b19010c2283","short_address": "West Cathcart Street, Buckie, AB56 1QB Moray", "tags":["Bowling", "Football", "Martial Arts", "Fitness", "Racquet Sports","Jogging"], "phone": "01542 832605", "lat": "57.673456", "lng": "-2.971149"},
    "/ServiceProvider/Facility/index.html?id=902fe6a0-57a2-4721-83d1-9b3100e9fd5a": {"title": "Marywell Play Park, Kirriemuir", "url":"/ServiceProvider/Facility/index.html?id=902fe6a0-57a2-4721-83d1-9b3100e9fd5a","short_address": "Marywell Gardens, Kirriemuir,  Angus", "tags": ["Play"],"phone": "08452 777 778", "lat": "56.6735721374765", "lng":"-2.9982590675354"},
    "/ServiceProvider/Facility/index.html?id=797eb5d5-ef61-4f50-a3e5-9b0a00b4af5c": {"title": "Ruthrieston Outdoor Sports Centre, Aberdeen", "url":"/ServiceProvider/Facility/index.html?id=797eb5d5-ef61-4f50-a3e5-9b0a00b4af5c","short_address": "Salisbury Place, Aberdeen, AB10 6QU Aberdeen City", "tags":["Bowling", "Golf", "Racquet Sports"], "phone": "01224 571849", "lat":"57.1348536737002", "lng": "-2.12270021438599"},
    "/ServiceProvider/Facility/index.html?id=cdd4ea4b-ae11-48c0-b2d7-9b1800a1ec5d": {"title": "King Street Allotments, Huntly", "url":"/ServiceProvider/Facility/index.html?id=cdd4ea4b-ae11-48c0-b2d7-9b1800a1ec5d","short_address": "King Street, Huntly,  Aberdeenshire", "tags": ["Gardening"],"phone": null, "lat": "57.446607", "lng": "-2.791499"},
    "/ServiceProvider/Facility/index.html?id=8bce5ad8-f75f-43c9-82d1-9b0a00d5203c": {"title": "Bridge of Don Swimming Pool and Community Centre, Aberdeen", "url":"/ServiceProvider/Facility/index.html?id=8bce5ad8-f75f-43c9-82d1-9b0a00d5203c","short_address": "Bridge of Don Swimming Pool, Braehead Way, Bridge of Don,Aberdeen, AB22 8RR Aberdeen City", "tags": ["Swimming", "Racquet Sports","Fitness"], "phone": "01224 701136", "lat": "57.1851810112488", "lng":"-2.11100578308105"},
    "/ServiceProvider/Facility/index.html?id=c634d7a6-77de-419f-90a8-9b080123b792": {"title": "Carrbridge Golf Club, Carrbridge", "url":"/ServiceProvider/Facility/index.html?id=c634d7a6-77de-419f-90a8-9b080123b792","short_address": "Inverness Road, Carrbridge, PH23 3AA Highland", "tags":["Golf"], "phone": "01479 841623", "lat": "57.280702", "lng": "-3.812404"},
    "/ServiceProvider/Facility/index.html?id=15880be1-c646-4ab5-8c1a-9b06012a676d": {"title": "Woodside Sports Complex, Aberdeen", "url":"/ServiceProvider/Facility/index.html?id=15880be1-c646-4ab5-8c1a-9b06012a676d","short_address": "Station Road, Woodside, Aberdeen, AB24 2UL Aberdeen City","tags": ["Rugby", "Football"], "phone": "01224 276141", "lat":"57.1745045410772", "lng": "-2.13621854782104"},
    "/ServiceProvider/Facility/index.html?id=6a075183-b8be-46f9-aeb7-9b0b0111261e": {"title": "Inverurie Swimming Centre, Inverurie", "url":"/ServiceProvider/Facility/index.html?id=6a075183-b8be-46f9-aeb7-9b0b0111261e","short_address": "Inverurie Swimming Centre, Victoria Street, Inverurie, AB513QS Aberdeenshire", "tags": ["Swimming", "Fitness"], "phone": "01467 620654","lat": "57.284271", "lng": "-2.379648"},
    "/ServiceProvider/Facility/index.html?id=a1e61886-813a-4954-afa9-9b0700c242c1": {"title": "Torry Outdoor Sports Centre, Aberdeen", "url":"/ServiceProvider/Facility/index.html?id=a1e61886-813a-4954-afa9-9b0700c242c1","short_address": "Victoria Road, Torry, Aberdeen, AB11 9NH Aberdeen City","tags": ["Bowling", "Racquet Sports", "Golf"], "phone": "01224 877964", "lat":"57.1373716674071", "lng": "-2.07524120807648"},
    "/ServiceProvider/Facility/index.html?id=810ae7df-4c22-4086-aeda-9b1900b3ff56": {"title": "Seafield Bowling Club, Aberdeen", "url":"/ServiceProvider/Facility/index.html?id=810ae7df-4c22-4086-aeda-9b1900b3ff56","short_address": "Cromwell Gardens, Aberdeen, AB15 4UF Aberdeen City", "tags":["Bowling"], "phone": "01224 316021", "lat": "57.1363091822817", "lng":"-2.13718414306641"},
    "/ServiceProvider/Facility/index.html?id=93295f55-636f-4036-8623-9b1a00c6edaa": {"title": "Highlander Park, Craigellachie", "url":"/ServiceProvider/Facility/index.html?id=93295f55-636f-4036-8623-9b1a00c6edaa","short_address": "Highlander Park, Craigellachie,  Moray", "tags": ["Play","Racquet Sports"], "phone": null, "lat": "57.4890538556702", "lng":"-3.19154977798462"},
    "/ServiceProvider/Facility/index.html?id=b7f27ef0-218f-419f-baa3-9b0d00b92f91": {"title": "Danestone Community Centre, Aberdeen", "url":"/ServiceProvider/Facility/index.html?id=b7f27ef0-218f-419f-baa3-9b0d00b92f91","short_address": "Danestone Community Centre, Fairview Street, Danestone,Aberdeen, AB22 8ZP Aberdeen City", "tags": ["Football", "Bowling", "Dancing","Fitness", "Racquet Sports", "Martial Arts"], "phone": "01224 828333", "lat":"57.182694", "lng": "-2.136886"},
    "/ServiceProvider/Facility/index.html?id=6f6343b2-191c-4942-8bc5-9ad900cedce9": {"title": "Montrose Swimming Pool, Montrose", "url":"/ServiceProvider/Facility/index.html?id=6f6343b2-191c-4942-8bc5-9ad900cedce9","short_address": "The Mall, Montrose, DD10 8NN Angus", "tags": ["Swimming","Fitness"], "phone": "01674 672026", "lat": "56.7163773169902", "lng":"-2.46655941009521"},
    "/ServiceProvider/Facility/index.html?id=f16b402d-4ed4-42ad-9d09-9aee0111d43a": {"title": "Balgay Park, Dundee", "url":"/ServiceProvider/Facility/index.html?id=f16b402d-4ed4-42ad-9d09-9aee0111d43a","short_address": "Balgay Park, Glamis Road, Dundee, DD2 2UB Dundee City","tags": ["Walking", "Jogging", "Cycling"], "phone": null, "lat": "56.464987","lng": "-3.012571"},
    "/ServiceProvider/Facility/index.html?id=16366cae-20c5-45c2-9457-9b0b010cfc89": {"title": "Soft Bear Play Centre, Banchory", "url":"/ServiceProvider/Facility/index.html?id=16366cae-20c5-45c2-9457-9b0b010cfc89","short_address": "Castlewood, Strachan, Banchory, AB31 6NQ Aberdeenshire","tags": ["Gymnastics", "Play"], "phone": "01330 850550", "lat": "57.025194","lng": "-2.570416"},
    "/ServiceProvider/Facility/index.html?id=7b36daf1-c88e-4da3-a557-9af000dde581": {"title": "Dundee Methodist Church, Dundee", "url":"/ServiceProvider/Facility/index.html?id=7b36daf1-c88e-4da3-a557-9af000dde581","short_address": "Dundee Methodist Church, 20 Marketgait, Dundee, DD1 1QRDundee City", "tags": ["Fitness"], "phone": "01382 221319", "lat":"56.4584062187174", "lng": "-2.97449469566345"},
    "/ServiceProvider/Woodland/index.html?id=d02e1e7a-7d56-49f8-8816-9ae300c6fd93": {"title": "Pannanich Forest - Pannanich Car Park", "url":"/ServiceProvider/Woodland/index.html?id=d02e1e7a-7d56-49f8-8816-9ae300c6fd93","short_address": " Aberdeenshire", "tags": ["Walking"], "phone": "01466794161", "lat": "57.0532887428982", "lng": "-3.02137009990577"},
    "/ServiceProvider/Facility/index.html?id=1d7e79fb-8b04-4cb3-8cd7-9ae2010b397d": {"title": "Arbroath Guide Hall, Arbroath", "url":"/ServiceProvider/Facility/index.html?id=1d7e79fb-8b04-4cb3-8cd7-9ae2010b397d","short_address": "Ogilvy Place, Arbroath,  Angus", "tags": ["Dancing"],"phone": null, "lat": "56.564013", "lng": "-2.589999"},
    "/ServiceProvider/Facility/index.html?id=123cccaa-8286-45ba-89ba-9b0b00dbd80e": {"title": "Huntly Nordic and Outdoor Centre, Huntly", "url":"/ServiceProvider/Facility/index.html?id=123cccaa-8286-45ba-89ba-9b0b00dbd80e","short_address": "Huntly Nordic and Outdoor Centre, The Ski Lodge, Hill ofHaugh, Huntly, AB54 4SH Aberdeenshire", "tags": ["Snow Sports", "Cycling","Skateboarding"], "phone": "01466 794428", "lat": "57.455475", "lng":"-2.780451"},
    "/ServiceProvider/Facility/index.html?id=51900ce1-b593-4be7-9d77-9ae400eeb500": {"title": "St Margaret's Church Hall, Forfar", "url":"/ServiceProvider/Facility/index.html?id=51900ce1-b593-4be7-9d77-9ae400eeb500","short_address": "West High Street, Forfar, DD8 1BJ Angus", "tags": ["Dancing","Fitness"], "phone": null, "lat": "56.6432739629533", "lng":"-2.89120674133301"},
    "/ServiceProvider/Facility/index.html?id=218535a2-4b88-405d-96a5-9b0c00fcddc7": {"title": "Culter Village Hall, Aberdeen", "url":"/ServiceProvider/Facility/index.html?id=218535a2-4b88-405d-96a5-9b0c00fcddc7","short_address": "178-186 North Deeside Road, Peterculter, Aberdeen, AB14 0UDAberdeen City", "tags": ["Gymnastics", "Dancing", "Fitness", "Bowling","Martial Arts"], "phone": "01224 734371", "lat": "57.0963492611013", "lng":"-2.26753950119019"},
    "/ServiceProvider/Woodland/index.html?id=000f6beb-20ee-4dae-94ef-9ae300c6fdc2": {"title": "Rotten O'Gairn - Rotten O'Gairn Car Park", "url":"/ServiceProvider/Woodland/index.html?id=000f6beb-20ee-4dae-94ef-9ae300c6fdc2","short_address": " Aberdeenshire", "tags": ["Equestrian", "Walking"], "phone":"01466 794161", "lat": "57.1308851494669", "lng": "-2.24368685616393"},
    "/ServiceProvider/Facility/index.html?id=44bea52a-360a-41f5-ae48-9b1a00eeb8a5": {"title": "Huntly Cycle Centre, Huntly", "url":"/ServiceProvider/Facility/index.html?id=44bea52a-360a-41f5-ae48-9b1a00eeb8a5","short_address": "Huntly Cycle Centre, 7 Granary Street, Huntly, AB54 5APAberdeen City", "tags": ["Cycling"], "phone": "01466 793508", "lat":"57.4467506582124", "lng": "-2.78623580932617"},
    "/ServiceProvider/Facility/index.html?id=64c514c3-8c22-4f2c-bff6-9b0800f999fe": {"title": "Boat of Garten Golf and Tennis Club", "url":"/ServiceProvider/Facility/index.html?id=64c514c3-8c22-4f2c-bff6-9b0800f999fe","short_address": "Nethybridge Road, Boat of Garten, PH24 3BQ Highland", "tags":["Golf", "Racquet Sports"], "phone": "01479 831282", "lat": "57.2465979431078","lng": "-3.7503719329834"},
    "/ServiceProvider/Facility/index.html?id=438a2281-01d0-4e42-9887-9b0701003d64": {"title": "Kinloss Country Golf Club, Forres", "url":"/ServiceProvider/Facility/index.html?id=438a2281-01d0-4e42-9887-9b0701003d64","short_address": "Kinloss, Forres, IV36 2UB Moray", "tags": ["Golf"], "phone":"01343 850585", "lat": "57.6391532494107", "lng": "-3.54635238647461"},
    "/ServiceProvider/Facility/index.html?id=c5db2fe5-779a-4efd-b701-9b0700ad427c": {"title": "Alex Collie Sports and Community Centre, Aberdeen", "url":"/ServiceProvider/Facility/index.html?id=c5db2fe5-779a-4efd-b701-9b0700ad427c","short_address": "Alex Collie Sports and Community Centre, Westfield Park,Scotstown Road, Aberdeen, AB22 8PE Aberdeen City", "tags": ["Fitness", "RacquetSports", "Football", "Hoop Sports", "Volleyball", "Gymnastics", "Stick AndBall", "Bowling", "Martial Arts", "Jogging"], "phone": "01224 826769", "lat":"57.1835878776399", "lng": "-2.10553407669067"},
    "/ServiceProvider/Facility/index.html?id=44cca1e4-6f7b-4d0b-86c8-9b0d00b33c76": {"title": "Newhills Bowling Club, Aberdeen", "url":"/ServiceProvider/Facility/index.html?id=44cca1e4-6f7b-4d0b-86c8-9b0d00b33c76","short_address": "Waterton Road, Bucksburn, Aberdeen, AB21 9HS Aberdeen City","tags": ["Bowling"], "phone": "01224 714825", "lat": "57.1855996335005", "lng":"-2.18303918838501"},
    "/ServiceProvider/Facility/index.html?id=cf20e2bc-3adb-4f90-9575-9b1a00ed0eb4": {"title": "Play Area Tomintoul, Ballindalloch", "url":"/ServiceProvider/Facility/index.html?id=cf20e2bc-3adb-4f90-9575-9b1a00ed0eb4","short_address": "Play Area Tomintoul, Cults Drive, Tomintoul, Ballindalloch,AB37 9HA Moray", "tags": ["Play"], "phone": null, "lat": "57.254253", "lng":"-3.382468"},
    "/ServiceProvider/Facility/index.html?id=a61474fd-5c7c-4de7-88d8-9b1a00a34383": {"title": "Bowl 2000, Elgin", "url":"/ServiceProvider/Facility/index.html?id=a61474fd-5c7c-4de7-88d8-9b1a00a34383","short_address": "Bowl 2000, 2 Moycroft Industrial Estate, Elgin, IV30 1XZMoray", "tags": ["Bowling", "Play"], "phone": "01343 541444", "lat":"57.6491095631539", "lng": "-3.29222917556763"},
    "/ServiceProvider/Facility/index.html?id=7a6b5da0-5582-4581-b05a-9b1a00e051ab": {"title": "Hayfield Riding Centre, Aberdeen", "url":"/ServiceProvider/Facility/index.html?id=7a6b5da0-5582-4581-b05a-9b1a00e051ab","short_address": "Hayfield Riding Centre, Hazledene Road, Hazlehead, Aberdeen,AB15 8BB Aberdeen City", "tags": ["Equestrian"], "phone": "01224 315703","lat": "57.1342248762902", "lng": "-2.18876838684082"},
    "/ServiceProvider/Facility/index.html?id=1f8b6bcb-9a2f-4871-b007-9b0d00d7a6ed": {"title": "Polmuir Bowling Club, Aberdeen", "url":"/ServiceProvider/Facility/index.html?id=1f8b6bcb-9a2f-4871-b007-9b0d00d7a6ed","short_address": "Polmuir Road, Aberdeen, AB11 7RS Aberdeen City", "tags":["Bowling"], "phone": "01224 575702", "lat": "57.1357735617791", "lng":"-2.10368871688843"},
    "/ServiceProvider/Facility/index.html?id=3dda196f-4321-4af0-9ef7-9b190114c671": {"title": "Danscentre, Aberdeen", "url":"/ServiceProvider/Facility/index.html?id=3dda196f-4321-4af0-9ef7-9b190114c671","short_address": "Danscentre, 89 Hutcheon Street, Aberdeen, AB25 3RS AberdeenCity", "tags": ["Dancing", "Fitness"], "phone": "01224 647341", "lat":"57.1537126297829", "lng": "-2.10609197616577"},
    "/ServiceProvider/Facility/index.html?id=a2ee600c-5075-4aa4-8765-9ad900f81483": {"title": "Saltire Leisure Centre, Arbroath", "url":"/ServiceProvider/Facility/index.html?id=a2ee600c-5075-4aa4-8765-9ad900f81483","short_address": "58 Montrose Road, Arbroath, DD11 5JN Angus", "tags":["Martial Arts", "Gymnastics", "Fitness", "Football", "Racquet Sports","Play"], "phone": "01241 431060", "lat": "56.5692838906057", "lng":"-2.57946968078613"},
    "/ServiceProvider/Facility/index.html?id=b17e0ee6-5e66-474a-9679-9b1b009b3878": {"title": "Craigellachie Village Hall, Craigellachie", "url":"/ServiceProvider/Facility/index.html?id=b17e0ee6-5e66-474a-9679-9b1b009b3878","short_address": "Craigellachie Village Hall, Standfast John Street,Craigellachie, AB38 9TD Moray", "tags": ["Bowling"], "phone": "01340 881289","lat": "57.486521", "lng": "-3.182182"},
    "/ServiceProvider/Facility/index.html?id=a6e83efc-3635-4d33-a3a9-9af000b9439c": {"title": "Broughty Ferry Boating Club, Dundee", "url":"/ServiceProvider/Facility/index.html?id=a6e83efc-3635-4d33-a3a9-9af000b9439c","short_address": "Broughty Ferry Boating Club, Grassy Beach, Broughty Ferry,Dundee, DD5 1EF Dundee City", "tags": ["Water Sports"], "phone": "01382776744", "lat": "56.468304913483", "lng": "-2.88677573204041"},
    "/ServiceProvider/Facility/index.html?id=7994dd55-4c19-426c-bf4d-9b1a00e27442": {"title": "McLeod Park, Portknockie", "url":"/ServiceProvider/Facility/index.html?id=7994dd55-4c19-426c-bf4d-9b1a00e27442","short_address": "McLeod Park, Portknockie, AB56 4NR Moray", "tags": ["Play"],"phone": null, "lat": "57.7032759108672", "lng": "-2.86071538925171"},